,Index,timestamp,throttle_ref,yaw,pitch,roll,tof_measurement,accX,accY,accZ,altitude_ref,RC_data,mot_FL,mot_FR,mot_BL,mot_BR,KF_altitutde_est,KF_velocity_z_est,KF_alpha_est,KF_beta_est
0,1000,0,0.3535714285714286,-0.0612780261189971,-0.0587677850710304,0.0418403916880158,[nan],-0.1,-0.02,-1.05,-1,"5.010,0.082,0.050,1318.,0.622,0.644,0.139,0.995,16",1271.0,1322.0,1360.0,1318.0,0.0,0.0,0.0,0.0
1,1010,0.2222468329999998,0.3842857142857143,-0.0203993298835054,-0.0195952530867551,0.0402065468894552,[nan],0.13,-0.15,-0.98,-1,"5.010,0.133,0.080,1345.,0.622,0.645,0.139,0.995,16",1312.0,1344.0,1382.0,1348.0,0.0,0.0,0.0,0.0
2,1020,0.43398449999999755,0.3842857142857143,0.0,0.0,0.0600090036469538,[nan],-0.16,-0.03,-1.13,-1,"4.935,0.094,0.067,1345.,0.622,0.644,0.139,0.995,16",1319.0,1346.0,1372.0,1340.0,0.0,0.0,0.0,0.0
3,1030,0.6676655549999992,0.385,0.0405902962812434,0.0187871002443158,0.0604053665861998,[nan],0.01,-0.02,-0.98,-1,"5.010,0.065,0.039,1346.,0.622,0.644,0.139,0.995,16",1349.0,1320.0,1359.0,1355.0,0.0,0.0,0.0,0.0
4,1040,0.9076057589999991,0.385,0.0405902962812434,0.0187871002443158,0.0604053665861998,[nan],0.04,-0.07,-0.97,-1,"4.935,0.028,0.025,1346.,0.622,0.644,0.139,0.995,16",1340.0,1337.0,1358.0,1347.0,0.0,0.0,0.0,0.0
5,1050,1.1163547220000005,0.3785714285714286,0.0599970186447041,-0.0012000002880001,0.0399846738846122,[nan],-0.01,0.17,-1.04,-1,"5.010,0.072,0.011,1340.,0.622,0.644,0.139,0.995,16",1333.0,1319.0,1353.0,1373.0,0.4963346534778692,-0.2180923334180721,10.000083745060454,-9.809997820881213
6,1060,1.3252015360000016,0.4128571428571427,0.0604053665861998,0.0187871002443158,0.0405902962812434,[nan],-0.07,0.08,-1.1,-1,"5.010,0.103,0.032,1371.,0.622,0.645,0.139,0.995,16",1368.0,1351.0,1371.0,1392.0,0.4877482994413928,-0.6054770786735286,10.01730641746837,-9.809576037873718
7,1070,1.5374588510000002,0.4135714285714286,0.0812304180984913,0.0375507820837885,0.0615952719570521,[nan],0.04,-0.04,-1.09,-1,"5.010,0.094,0.047,1372.,0.622,0.644,0.139,0.995,16",1376.0,1345.0,1393.0,1372.0,0.4759029200112619,-1.1468501727587033,10.234693162352569,-9.80430933517807
8,1080,1.7491064069999993,0.4135714285714286,0.1016149542920866,0.0359176207637299,0.0819643463123584,[nan],-0.02,-0.03,-1.04,-1,"5.010,0.080,0.023,1372.,0.622,0.645,0.139,0.995,16",1375.0,1364.0,1379.0,1368.0,0.4690898328804683,-1.3720754415299616,13.763480667727954,-9.718780942908134
9,1090,1.9632475730000003,0.4142857142857143,0.1209150272943079,0.0375207059962283,0.0423543659464356,[nan],-0.1,0.08,-1.07,-1,"5.010,0.065,0.003,1372.,0.622,0.644,0.139,0.995,16",1358.0,1364.0,1384.0,1380.0,0.5727074457103777,-0.7806873502817543,16.8439512406879,-9.64402242631926
10,1100,2.179576220999998,0.4135714285714286,0.120282735024881,0.0187630647428174,0.021167270082132,[nan],-0.03,0.01,-1.02,-1,"5.010,0.142,0.053,1372.,0.621,0.644,0.139,0.995,16",1354.0,1349.0,1378.0,1405.0,0.627031822439527,-0.6025673574312864,18.15180742220329,-9.6125020197721
11,1110,2.3884159799999978,0.4135714285714286,0.1209150272943079,0.0375207059962283,0.0423543659464356,[nan],-0.05,0.06,-0.94,-1,"5.010,0.158,0.041,1372.,0.622,0.644,0.139,0.995,16",1378.0,1340.0,1377.0,1391.0,0.6530279470296582,-0.5237215624106433,19.197765812607564,-9.5872511510455
12,1120,2.6031348690000016,0.4142857142857143,0.1234620453525567,0.0961976855237392,0.0661434363736719,[nan],0.03,-0.0,-0.91,-1,"5.010,0.153,0.035,1372.,0.622,0.644,0.139,0.995,16",1402.0,1329.0,1355.0,1400.0,0.7525412345991543,-0.3668685645225378,19.77928834117036,-9.573075525999265
13,1130,2.8268889239999986,0.4128571428571427,0.1219300652712353,0.0774531022687241,0.0448372412216491,[nan],-0.07,-0.04,-1.04,-1,"5.010,0.103,0.084,1371.,0.622,0.644,0.139,0.995,16",1375.0,1341.0,1362.0,1409.0,0.7944245239650874,-0.405450785542878,20.13213999324828,-9.564448229293186
14,1140,3.033113684,0.4128571428571427,0.1225248825934793,0.0550445124060132,0.0835793392650756,[nan],-0.14,-0.11,-1.05,-1,"5.010,0.076,0.146,1371.,0.622,0.644,0.139,0.995,16",1385.0,1339.0,1363.0,1395.0,0.8118517078413485,-0.335621857967706,20.576436304254774,-9.553498367150771
15,1150,3.249951238999998,0.4128571428571427,0.1226323489975059,0.0314267749903882,0.1423256673755915,[nan],-0.14,0.0,-1.03,-1,"5.010,0.114,0.140,1371.,0.622,0.644,0.139,0.995,16",1380.0,1320.0,1398.0,1384.0,0.8304080275995547,-0.3121189813855034,20.82720536165892,-9.54724701003338
16,1160,3.4589863309999984,0.4128571428571427,0.1226323489975059,0.0314267749903882,0.1423256673755915,[nan],-0.12,-0.01,-1.0,-1,"5.010,0.116,0.095,1371.,0.622,0.644,0.139,0.995,16",1370.0,1344.0,1394.0,1375.0,0.810800136207975,-0.2881883739042438,21.06201691245053,-9.54121304488477
17,1170,3.6823293130000003,0.4128571428571427,0.1420060811093236,0.0328496022701392,0.1026446639461414,[nan],0.05,-0.04,-1.03,-1,"5.010,0.142,0.037,1371.,0.622,0.644,0.139,0.995,16",1341.0,1367.0,1405.0,1370.0,0.7948589878262755,-0.2846219798774614,21.244074212903644,-9.536600375734464
18,1180,3.8911322760000004,0.4135714285714286,0.1621081713388101,0.0765379969625714,0.0463840215923822,[nan],-0.17,-0.03,-1.05,-1,"5.010,0.136,0.035,1372.,0.622,0.645,0.139,0.995,16",1351.0,1381.0,1393.0,1358.0,0.764759191532338,-0.2819328795696367,21.395907289390827,-9.532880546069167
19,1190,4.100410737999997,0.4135714285714286,0.1822194513984389,0.0760683136279711,0.047151258311711,[nan],-0.11,-0.03,-0.97,-1,"4.935,0.141,0.026,1372.,0.622,0.644,0.139,0.995,16",1361.0,1350.0,1404.0,1371.0,0.8346861955631438,-0.1755006591224981,21.553916077356657,-9.529064662043016
20,1200,4.3098507569999995,0.4142857142857143,0.1829637712304348,0.0742430566208167,0.0671162798628929,[nan],-0.21,-0.0,-1.0,-1,"4.861,0.142,0.022,1372.,0.622,0.644,0.139,0.995,16",1373.0,1349.0,1387.0,1378.0,0.8686300236908827,-0.1906998565705716,21.67603981928292,-9.526127066093927
21,1210,4.534194108999998,0.415,0.1822194513984389,0.0760683136279711,0.047151258311711,[nan],-0.06,0.04,-0.97,-1,"4.935,0.181,-0.02,1373.,0.622,0.644,0.139,0.995,16",1379.0,1335.0,1380.0,1395.0,0.850526223348495,-0.1628164122617591,21.72082007194987,-9.52506200091358
22,1220,4.777497330999999,0.4071428571428573,0.1819006596585627,0.0978194866522839,0.0290355773032367,[nan],-0.06,0.07,-0.98,-1,"4.935,0.182,-0.03,1366.,0.622,0.644,0.139,0.995,16",1385.0,1331.0,1345.0,1400.0,0.8086807249553978,-0.1850291856591139,21.772370466077685,-9.523706726960311
23,1230,4.9987921449999995,0.4071428571428573,0.160773388158886,0.0997191898488267,0.0080400277592631,[nan],0.0,-0.06,-0.98,-1,"4.935,0.169,-0.03,1366.,0.621,0.644,0.139,0.995,16",1402.0,1306.0,1322.0,1432.0,0.7515937106428578,-0.2752236101844065,21.85437192927021,-9.521392896955742
24,1240,5.215233663999999,0.4442857142857143,0.1404513397101876,0.079824321513001,0.0056179184249553,[nan],-0.14,0.1,-1.05,-1,"5.010,0.112,0.013,1399.,0.622,0.644,0.139,0.995,16",1427.0,1341.0,1375.0,1447.0,0.6682570564961237,-0.0073045960332435,21.908121559791983,-9.519945494068049
25,1250,5.430633885999999,0.4428571428571427,0.1212824985423934,0.0363098576499711,0.0623342386434245,[nan],-0.07,-0.04,-1.15,-1,"5.010,0.107,0.031,1398.,0.622,0.645,0.139,0.995,16",1452.0,1310.0,1367.0,1461.0,0.6339847370599676,0.0507640690919151,21.888380484173563,-9.52006707755986
26,1260,5.6598179779999995,0.442142857142857,0.0812304180984913,0.0375507820837885,0.0615952719570521,[nan],0.01,0.04,-1.09,-1,"5.010,0.177,0.051,1397.,0.622,0.644,0.139,0.995,16",1427.0,1327.0,1384.0,1449.0,0.6217433101613308,0.0201462837781095,21.868068310710427,-9.52019671055688
27,1270,5.876032015,0.442142857142857,0.0633091251090447,0.077513429305227,0.0825773189473986,[nan],-0.04,-0.08,-1.1,-1,"4.935,0.177,0.061,1397.,0.622,0.644,0.139,0.995,16",1437.0,1335.0,1371.0,1442.0,0.65580191689843,0.0342317258676113,21.86103756337072,-9.520249218500256
28,1280,6.103084311,0.442142857142857,0.0632169620051617,0.0981422418899271,0.0632169620051617,[nan],-0.08,-0.1,-1.16,-1,"5.010,0.089,0.062,1397.,0.622,0.644,0.139,0.995,16",1415.0,1366.0,1372.0,1434.0,0.7336553878969198,0.1938694946288845,21.86294418494564,-9.520233830340011
29,1290,6.350043273999997,0.4407142857142856,0.0612167418079317,0.0381652402549241,0.0612167418079317,[nan],-0.05,0.01,-1.1,-1,"5.010,0.020,0.145,1396.,0.622,0.644,0.139,0.995,16",1402.0,1364.0,1374.0,1446.0,0.7569173698020123,0.1509531535162893,21.85388801617962,-9.52030890997954
30,1300,6.558264478000002,0.442142857142857,0.0599010514703161,-0.0036000077760451,0.1200183964474945,[nan],-0.24,0.13,-1.13,-1,"4.935,0.065,0.157,1397.,0.622,0.644,0.139,0.995,16",1389.0,1358.0,1416.0,1422.0,0.935222866166408,0.1843025334785653,21.84465366114662,-9.520376721800805
31,1310,6.770904421999997,0.4414285714285713,0.0612686493337732,0.0157415628274206,0.1406672040756711,[nan],-0.08,-0.04,-1.1,-1,"5.010,0.139,0.121,1397.,0.622,0.644,0.139,0.995,16",1381.0,1366.0,1419.0,1420.0,1.0989545146358497,0.0490163332164133,21.83169713621609,-9.520484753237204
32,1320,6.981889366000001,0.4414285714285713,0.0635811660810546,0.0562674667352203,0.1219703084704034,[nan],-0.02,-0.01,-0.96,-1,"5.010,0.188,0.067,1397.,0.622,0.645,0.139,0.995,16",1392.0,1361.0,1414.0,1420.0,1.2735992088702222,0.0901951838331954,21.827162633332843,-9.52052179391137
33,1330,7.186451366,0.4407142857142856,0.0842642746071705,0.0966650642910473,0.0842642746071705,[nan],-0.12,-0.01,-1.1,-1,"4.935,0.177,0.052,1396.,0.622,0.645,0.139,0.995,16",1398.0,1375.0,1399.0,1414.0,1.5640387689322124,0.164331764065373,21.82578901254821,-9.520533270672273
34,1340,7.416212087999998,0.417857142857143,0.1033721974929115,0.096855927957133,0.0651741143659536,[nan],0.09,0.02,-1.0,-1,"5.085,0.157,0.036,1376.,0.622,0.644,0.139,0.995,16",1403.0,1336.0,1360.0,1420.0,1.7910558218586825,-0.0130173051809704,21.828098639460794,-9.520433658533143
35,1350,7.666699625,0.417857142857143,0.1224949432114769,0.0974285341374259,0.0461046897320991,[nan],0.07,-0.1,-0.93,-1,"5.010,0.144,0.043,1376.,0.622,0.645,0.139,0.995,16",1375.0,1351.0,1368.0,1408.0,2.1094552662831783,0.0462851018539596,21.86695124826175,-9.5192433000327
36,1360,7.872638884000001,0.4164285714285713,0.1219300652712353,0.0774531022687241,0.0448372412216491,[nan],0.0,0.11,-0.92,-1,"4.935,0.144,0.100,1374.,0.622,0.644,0.139,0.995,16",1358.0,1356.0,1369.0,1411.0,2.254108150642346,-0.0733652822386638,21.90062684294013,-9.51817150147346
37,1370,8.08614944,0.415,0.1425722396485617,0.0542041266174262,0.0841260535475791,[nan],-0.07,0.0,-0.93,-1,"5.010,0.163,0.222,1373.,0.622,0.644,0.139,0.995,16",1370.0,1341.0,1374.0,1408.0,2.416099041056804,-0.0510961993854106,21.94647046241824,-9.516664178634544
38,1380,8.305990366,0.415,0.1463563784606713,0.0683354974994769,0.1657069479108762,[nan],-0.1,-0.1,-1.01,-1,"4.935,0.126,0.144,1373.,0.622,0.644,0.139,0.995,16",1394.0,1328.0,1394.0,1374.0,2.554917575926462,-0.085288825443089,21.98182704810499,-9.5153813499519
39,1390,8.511107217,0.415,0.1663783087276613,0.0666712933560527,0.1663783087276613,[nan],-0.01,-0.09,-0.89,-1,"4.935,0.136,0.094,1373.,0.622,0.645,0.139,0.995,16",1369.0,1341.0,1399.0,1380.0,2.699235865982347,-0.1175648643194186,22.01708539669352,-9.513920317035495
40,1400,8.720119957999998,0.415,0.2044974493659288,0.0694899102892421,0.1077605063066958,[nan],-0.0,0.1,-0.98,-1,"4.935,0.144,0.050,1373.,0.622,0.644,0.139,0.995,16",1362.0,1356.0,1388.0,1384.0,2.8248263012076884,-0.0873440845349395,22.05609740399947,-9.51239584967106
41,1410,8.931832643,0.415,0.2038010703173483,0.0715312312451075,0.0878072949955999,[nan],-0.19,0.1,-1.06,-1,"5.010,0.151,0.046,1373.,0.622,0.644,0.139,0.995,16",1400.0,1320.0,1362.0,1407.0,2.8646869416106027,-0.0846349676873888,22.088390781648982,-9.511259493322228
42,1420,9.150314754,0.415,0.2030846852363041,0.0735647623533353,0.0678592853714225,[nan],0.07,-0.06,-0.94,-1,"2.318,0.156,0.035,1373.,0.622,0.644,0.139,0.995,16",1359.0,1342.0,1386.0,1403.0,2.966589626780153,-0.0964878119675631,22.122126089968223,-9.510098615691527
43,1430,9.375533308999998,0.4142857142857143,0.2023482982693052,0.0755905171716981,0.0479143791826293,[nan],-0.16,0.13,-1.03,-1,"4.711,0.158,-0.00,1372.,0.622,0.644,0.139,0.995,16",1367.0,1338.0,1379.0,1405.0,2.964055557519811,-0.0844559071534878,22.132348327125552,-9.509756705774464
44,1440,9.586505531,0.4142857142857143,0.1814570710643094,0.077885755962769,0.0271875184273787,[nan],0.05,0.02,-0.99,-1,"-1.04,0.160,0.000,1372.,0.622,0.645,0.139,0.995,16",1377.0,1335.0,1350.0,1424.0,3.0304273060843085,-0.0309409394125723,22.14919347022884,-9.50919069076592
45,1450,9.873495513000002,0.1457142857142856,0.1605559234010637,0.0797639105996788,0.0064204575229789,[nan],0.01,0.04,-0.96,[3.1],"5.010,0.154,0.014,1131.,0.622,0.645,0.139,0.995,18",1381.0,1336.0,1347.0,1423.0,3.089975776664065,-0.0612071517631256,22.17149424808894,-9.508430790224718
46,1460,10.124795827,0.4478571428571427,0.160773388158886,0.0997191898488267,0.0080400277592631,[nan],-0.06,-0.02,-1.07,[3.1],"4.935,0.151,0.014,1403.,0.622,0.644,0.139,0.995,18",1392.0,1396.0,1392.0,1418.0,3.064965801032332,-0.1206837388518193,22.17141994089084,-9.508275991636316
47,1470,10.357160438000001,0.4378571428571427,0.1613400989693834,0.0781548810174019,0.0264024879377655,[nan],-0.05,-0.03,-1.11,[3.1],"4.935,0.262,0.145,1394.,0.622,0.645,0.139,0.995,18",1378.0,1364.0,1396.0,1456.0,3.0306785912856684,-0.0195450506483881,22.170861408502,-9.50828427944694
48,1480,10.598817419999996,0.4614285714285713,0.1656807468559553,0.1131432136835297,0.0898289891178354,[nan],-0.06,-0.07,-1.0,[3.1],"5.010,0.186,0.093,1415.,0.622,0.645,0.139,0.995,18",1425.0,1349.0,1382.0,1414.0,2.952447046761016,-0.1390014370521383,22.164430971679,-9.50832661929366
49,1490,10.847957993999998,0.452142857142857,0.1667998152162512,0.1114783964362478,0.1098746284412806,[nan],-0.07,0.07,-0.96,[3.1],"5.010,0.179,0.081,1406.,0.622,0.645,0.139,0.995,18",1392.0,1340.0,1386.0,1412.0,2.9800508806490047,-0.0884510728922205,22.166302276488747,-9.50840920141593
50,1500,11.084683771000002,0.4407142857142856,0.1445079345831913,0.0940877401508641,0.08713431050849,[nan],0.0,-0.02,-1.04,[3.1],"5.010,0.239,0.093,1396.,0.622,0.645,0.139,0.995,18",1392.0,1327.0,1378.0,1448.0,3.0150291702953504,-0.0275830964845056,22.1687911177544,-9.508427370749716
51,1510,11.315647752999993,0.417857142857143,0.146678402436866,0.1125758090578119,0.1087497334435796,[nan],-0.12,-0.01,-1.07,[3.1],"4.935,0.244,0.125,1376.,0.622,0.644,0.139,0.995,18",1379.0,1361.0,1413.0,1388.0,3.0753286929937538,0.09591340918885,22.17350617736879,-9.508374153310507
52,1520,11.55747066,0.4092857142857143,0.1278223432309536,0.1336251774788206,0.1090344640110244,[nan],0.13,-0.09,-0.98,[3.1],"5.010,0.236,0.090,1368.,0.622,0.645,0.139,0.995,18",1435.0,1286.0,1339.0,1446.0,3.173700539579453,0.0890762611369728,22.17914954572708,-9.508243964847413
53,1530,11.798891808,0.4164285714285713,0.1278223432309536,0.1336251774788206,0.1090344640110244,[nan],-0.07,-0.04,-0.99,[3.1],"4.935,0.214,0.105,1374.,0.622,0.645,0.139,0.995,18",1393.0,1348.0,1390.0,1419.0,3.198203085624603,0.0173066467678569,22.18106629594629,-9.508184127285125
54,1540,12.045168123000003,0.4107142857142857,0.1265687455679625,0.1136611524376838,0.1076144497475882,[nan],-0.08,-0.04,-1.08,[3.1],"5.010,0.178,0.079,1369.,0.622,0.644,0.139,0.995,18",1383.0,1324.0,1391.0,1388.0,3.249923908676028,0.0242988658393883,22.185488466555547,-9.508034950431432
55,1550,12.291279271,0.4514285714285713,0.1262898462669288,0.092445437447818,0.1262898462669288,[nan],0.01,-0.0,-1.06,[3.1],"4.935,0.168,0.030,1406.,0.622,0.645,0.139,0.995,18",1410.0,1343.0,1419.0,1438.0,3.148127575748418,-0.2072809890522097,22.18015071943255,-9.50820909121432
56,1560,12.538081048000002,0.4414285714285713,0.1234507737362331,0.0749978226275718,0.0848676544438664,[nan],-0.06,0.17,-1.03,[3.1],"4.861,0.175,0.011,1397.,0.622,0.644,0.139,0.995,18",1389.0,1350.0,1420.0,1420.0,3.1016529024059096,-0.0991936580237602,22.18044972705965,-9.508195503571637
57,1570,12.785872566999998,0.4307142857142856,0.1226964869105525,0.0762294325837507,0.0648503631078563,[nan],-0.22,-0.09,-1.09,[3.1],"4.861,0.180,0.010,1387.,0.622,0.645,0.139,0.995,18",1377.0,1353.0,1426.0,1409.0,3.0910881821735527,-0.0113246128054703,22.181537782561826,-9.508193989235194
58,1580,13.019940603000002,0.4185714285714286,0.1226964869105525,0.0762294325837507,0.0648503631078563,[nan],-0.2,0.05,-1.08,[3.1],"4.861,0.169,-0.00,1376.,0.622,0.644,0.139,0.995,18",1375.0,1334.0,1394.0,1419.0,3.1254726229640446,0.0558373742972665,22.18447180842504,-9.508169092165264
59,1590,13.254376659000002,0.3971428571428573,0.1211515119465676,0.0786688373471355,0.0248262544462855,[nan],-0.19,0.0,-1.05,[3.1],"4.861,0.188,-0.00,1357.,0.621,0.644,0.139,0.995,18",1328.0,1324.0,1386.0,1392.0,3.2364872135315874,0.1324982162981382,22.19153428206815,-9.508005691890173
60,1600,13.494939381000002,0.4042857142857143,0.1414660474208852,0.0570446438501666,0.0441619712168171,[nan],-0.17,0.01,-0.95,[3.1],"4.861,0.212,0.014,1363.,0.622,0.644,0.139,0.995,18",1349.0,1307.0,1373.0,1409.0,3.312386073819348,0.0217228474873482,22.195393577814,-9.507826615972885
61,1610,13.750617954999996,0.4157142857142857,0.1412389284630082,0.0784159021845189,0.0256153981728672,[nan],-0.18,-0.0,-0.98,[3.1],"4.861,0.266,0.046,1374.,0.622,0.644,0.139,0.995,18",1350.0,1346.0,1403.0,1408.0,3.316498468725136,-0.0642742639117519,22.19776277344868,-9.507722867582636
62,1620,13.982273288000002,0.4057142857142857,0.1636763461958441,0.0948509539350863,0.0680635243443906,[nan],-0.26,-0.13,-1.06,[3.1],"4.935,0.272,0.056,1365.,0.622,0.644,0.139,0.995,18",1333.0,1328.0,1402.0,1368.0,3.3801755571859964,-0.0356417749091782,22.204061557126465,-9.50749398640964
63,1630,14.223472381,0.4128571428571427,0.1656807468559553,0.1131432136835297,0.0898289891178354,[nan],-0.04,-0.14,-1.04,[3.1],"4.861,0.293,0.038,1371.,0.622,0.644,0.139,0.995,18",1401.0,1278.0,1341.0,1429.0,3.399105847847172,-0.1049402561826578,22.20820138635024,-9.507297371076984
64,1640,14.461704121000004,0.4135714285714286,0.166805328662901,0.1330865936495577,0.0916195033400172,[nan],-0.15,-0.13,-1.0,[3.1],"4.935,0.332,0.043,1372.,0.622,0.645,0.139,0.995,18",1366.0,1293.0,1370.0,1409.0,3.442088182734341,-0.1400818386081287,22.213269727107967,-9.507047582088324
65,1650,14.706950436,0.4064285714285713,0.1674823858029794,0.1746958474044642,0.0751496647826594,[nan],0.13,-0.11,-1.1,[3.1],"4.935,0.347,0.035,1365.,0.622,0.644,0.139,0.995,18",1395.0,1299.0,1355.0,1429.0,3.446666202973806,-0.0945269826160982,22.21821369855853,-9.506830365496848
66,1660,14.955609269,0.4185714285714286,0.1666072855023101,0.1963725450030675,0.0567838416375821,[nan],0.03,-0.08,-0.93,[3.1],"4.935,0.325,0.018,1376.,0.622,0.644,0.139,0.995,18",1362.0,1325.0,1377.0,1394.0,3.462799638627446,-0.1947776226491691,22.22328916439316,-9.506586771955016
67,1670,15.199880860999997,0.4021428571428573,0.1657199746005897,0.1763668695100735,0.0549810340864042,[nan],-0.27,0.04,-0.93,[3.1],"5.085,0.333,0.026,1361.,0.622,0.645,0.139,0.995,18",1358.0,1296.0,1365.0,1402.0,3.5272597950648725,-0.1229685024074011,22.231833522486912,-9.506069490719772
68,1680,15.449850158000004,0.425,0.1674823858029794,0.1746958474044642,0.0751496647826594,[nan],-0.12,-0.07,-1.06,[3.1],"5.085,0.375,0.040,1382.,0.622,0.645,0.139,0.995,18",1376.0,1316.0,1397.0,1425.0,3.459249594331653,-0.2428449044887448,22.233299782169983,-9.505995558355922
69,1690,15.686036713,0.4114285714285713,0.1718940394120821,0.2129843734062255,0.0991921268874363,[nan],-0.01,-0.05,-1.01,[3.1],"5.235,0.467,0.055,1370.,0.622,0.645,0.139,0.995,18",1394.0,1303.0,1392.0,1425.0,3.4394665465897827,-0.125329073075434,22.23883734979519,-9.505814332554928
70,1700,15.935516639,0.445,0.1763927944101715,0.2730907823593114,0.1053812190025644,[nan],-0.18,-0.11,-1.05,[3.1],"5.010,0.399,0.056,1400.,0.622,0.645,0.139,0.995,18",1404.0,1326.0,1370.0,1418.0,3.35316811592604,-0.312480759061657,22.239140518021053,-9.50581106034083
71,1710,16.172765953000003,0.4235714285714286,0.1528744706658375,0.2340086374404355,0.0988089781672551,[nan],-0.21,-0.01,-1.11,[3.1],"5.010,0.264,0.122,1381.,0.622,0.644,0.139,0.995,18",1413.0,1337.0,1404.0,1433.0,3.313144953522264,-0.1261807162652424,22.24451017069749,-9.50569437691968
72,1720,16.425030508999996,0.4685714285714286,0.1479684222410242,0.1325239059310177,0.1103728929266113,[nan],-0.03,0.0,-1.09,[3.1],"5.010,0.192,0.127,1421.,0.622,0.644,0.139,0.995,18",1461.0,1333.0,1451.0,1514.0,3.065719057258749,-0.2798736117566485,22.23486981636681,-9.505914244566773
73,1730,16.65837499,0.4478571428571427,0.1256407391043391,0.0712552569343789,0.1449649820913184,[nan],-0.46,-0.09,-1.33,[3.1],"4.786,0.185,0.081,1403.,0.622,0.645,0.139,0.995,18",1403.0,1364.0,1458.0,1453.0,2.976126674515543,-0.0617583534095811,22.2334277530004,-9.505916677418098
74,1740,16.888848582999998,0.4321428571428573,0.1241929189651369,0.0737582642375922,0.1048911550606824,[nan],-0.16,0.1,-1.05,[3.1],"4.786,0.199,0.038,1388.,0.621,0.645,0.139,0.995,18",1365.0,1353.0,1424.0,1424.0,2.9675315071086725,0.0590938523059458,22.233616851319177,-9.50591603550332
75,1750,17.127320527000002,0.43,0.1426033093545019,0.0969610943260499,0.0470821527168684,[nan],-0.12,-0.01,-1.01,[3.1],"4.711,0.251,0.038,1387.,0.622,0.644,0.139,0.995,18",1362.0,1335.0,1410.0,1450.0,2.9975135323893287,0.0530747271831567,22.234199229723146,-9.505946618003252
76,1760,17.361575619,0.4057142857142857,0.1432397214092252,0.1169310885391001,0.0485722517347691,[nan],-0.02,0.02,-0.94,[3.1],"4.935,0.362,0.090,1365.,0.622,0.644,0.139,0.995,18",1326.0,1313.0,1382.0,1409.0,3.1706118691417093,0.1097107553407319,22.242998064400727,-9.505884583377458
77,1770,17.59047023,0.3957142857142857,0.1462206412549757,0.1554462711057862,0.0717589345587409,[nan],-0.33,0.08,-0.88,[3.1],"4.935,0.385,0.100,1356.,0.622,0.644,0.139,0.995,18",1340.0,1294.0,1362.0,1410.0,3.2848784888293023,0.100357380896461,22.24850805948948,-9.505593797465083
78,1780,17.840330823000002,0.4014285714285713,0.1692275970696713,0.1730068855209037,0.0953184572448177,[nan],-0.1,0.06,-0.9,[3.1],"4.935,0.415,0.125,1361.,0.622,0.644,0.139,0.995,18",1331.0,1321.0,1386.0,1400.0,3.352567965220631,0.0058595378327493,22.2523641896818,-9.505303388647942
79,1790,18.068544804,0.4028571428571427,0.1705292105196243,0.1929875415732229,0.0972320740579493,[nan],-0.3,0.06,-1.08,[3.1],"4.786,0.409,0.110,1362.,0.622,0.645,0.139,0.995,18",1353.0,1320.0,1383.0,1418.0,3.403398715220211,-0.0395701566107948,22.257099534547766,-9.504955156633471
80,1800,18.306618786,0.4121428571428573,0.194413053995716,0.2100294127874886,0.1216242514829981,[nan],-0.24,0.01,-0.96,[3.1],"4.786,0.400,0.129,1370.,0.622,0.644,0.139,0.995,18",1363.0,1316.0,1385.0,1429.0,3.41185183168798,-0.1175804375537966,22.26064504792793,-9.50471615785402
81,1810,18.558890434,0.4164285714285713,0.2168868585453439,0.2066216638110738,0.143997395715229,[nan],-0.13,-0.08,-0.96,[3.1],"4.786,0.391,0.132,1374.,0.622,0.644,0.139,0.995,18",1337.0,1303.0,1374.0,1400.0,3.464073721258759,-0.1844945715026263,22.26671494394024,-9.504322986931705
82,1820,18.808646877999998,0.4064285714285713,0.2148019180625785,0.2087908382827512,0.1237589282770598,[nan],-0.23,0.08,-1.0,[3.1],"4.861,0.400,0.130,1365.,0.622,0.644,0.139,0.995,18",1357.0,1324.0,1394.0,1419.0,3.486494123444298,-0.13146695477168,22.27356137741685,-9.50384132298037
83,1830,19.063397396,0.4235714285714286,0.2148019180625785,0.2087908382827512,0.1237589282770598,[nan],-0.2,0.03,-1.05,[3.1],"5.010,0.392,0.142,1381.,0.622,0.645,0.139,0.995,18",1370.0,1312.0,1382.0,1431.0,3.457276999755592,-0.2353179120137475,22.277094056618115,-9.503605156803802
84,1840,19.313771322,0.4021428571428573,0.2131071514873667,0.188857873857668,0.1213178019968293,[nan],-0.13,-0.01,-1.03,[3.1],"5.010,0.381,0.139,1361.,0.622,0.644,0.139,0.995,18",1345.0,1324.0,1408.0,1420.0,3.4641645371521035,-0.0854876201268204,22.284746725061783,-9.503278393891838
85,1850,19.553774673999996,0.4192857142857143,0.214985786746193,0.186708803682515,0.1414982188150987,[nan],-0.1,-0.13,-0.9,[3.1],"5.010,0.388,0.135,1377.,0.622,0.645,0.139,0.995,18",1352.0,1304.0,1392.0,1430.0,3.443633252056562,-0.1981891153444604,22.28718693914288,-9.50313974145242
86,1860,19.785132839999996,0.4142857142857143,0.2148019180625785,0.2087908382827512,0.1237589282770598,[nan],-0.13,0.07,-1.06,[3.1],"4.935,0.393,0.130,1372.,0.622,0.644,0.139,0.995,18",1360.0,1320.0,1386.0,1428.0,3.4444473648804004,-0.1625454186614231,22.29245778053303,-9.50285825871167
87,1870,20.030092155,0.41,0.2165780436861783,0.2287394573522232,0.1262610264342863,[nan],-0.13,-0.05,-0.91,[3.1],"5.010,0.387,0.144,1369.,0.622,0.644,0.139,0.995,18",1328.0,1320.0,1371.0,1404.0,3.4829451956381376,-0.1592307558802515,22.298379831740725,-9.502513739787966
88,1880,20.264923357999997,0.442142857142857,0.2188716500537093,0.22654909739185,0.1465639393290927,[nan],-0.28,0.11,-1.02,[3.1],"5.010,0.385,0.160,1397.,0.622,0.644,0.139,0.995,18",1367.0,1324.0,1383.0,1428.0,3.396316916588571,-0.3321203198829787,22.29855522259752,-9.50248411769657
89,1890,20.516457005999996,0.44,0.2188716500537093,0.22654909739185,0.1465639393290927,[nan],-0.31,0.13,-1.07,[3.1],"4.935,0.371,0.181,1396.,0.622,0.644,0.139,0.995,18",1355.0,1351.0,1401.0,1427.0,3.331833920820491,-0.2686343398464267,22.302060147913657,-9.502350925709449
90,1900,20.753629488,0.422857142857143,0.2393087716132276,0.2027618511009978,0.1663047017687041,[nan],-0.2,-0.03,-1.01,[3.1],"5.010,0.342,0.189,1380.,0.622,0.644,0.139,0.995,18",1354.0,1340.0,1405.0,1415.0,3.3389785944900128,-0.1510453448690708,22.30799480180496,-9.502172739086312
91,1910,20.988097783999997,0.4307142857142856,0.2371446722959193,0.1828995539740721,0.1635407338975501,[nan],-0.15,0.14,-1.1,[3.1],"5.010,0.347,0.173,1387.,0.622,0.644,0.139,0.995,18",1378.0,1337.0,1414.0,1442.0,3.2596279962532715,-0.1537727921890531,22.30832203251257,-9.50221483473261
92,1920,21.224749394999996,0.4257142857142856,0.2556518669010313,0.1838134697299349,0.145256768056099,[nan],-0.17,-0.04,-1.06,[3.1],"5.010,0.354,0.166,1383.,0.622,0.644,0.139,0.995,18",1360.0,1349.0,1416.0,1433.0,3.251399021123766,-0.1112699910566393,22.31167715002385,-9.502148981895672
93,1930,21.463242801999996,0.4385714285714286,0.2576692126513463,0.2036688496325436,0.1481731872468407,[nan],-0.19,-0.05,-0.96,[3.1],"5.010,0.355,0.163,1394.,0.622,0.644,0.139,0.995,18",1360.0,1330.0,1406.0,1426.0,3.215413472406269,-0.1776974789931029,22.31333928765168,-9.502120810306709
94,1940,21.698145339,0.4321428571428573,0.2596839505449689,0.2010705753560591,0.1683544088606396,[nan],-0.08,-0.15,-0.96,[3.1],"5.010,0.357,0.166,1388.,0.622,0.645,0.139,0.995,18",1351.0,1305.0,1384.0,1422.0,3.232053232048075,-0.144776732727778,22.31727812431918,-9.50203482908355
95,1950,21.922769209000002,0.4192857142857143,0.276013172155565,0.1823350242798826,0.147115885490331,[nan],-0.21,0.06,-1.01,[3.1],"5.010,0.359,0.165,1377.,0.622,0.644,0.139,0.995,18",1355.0,1326.0,1403.0,1439.0,3.2309372964615126,-0.0502410528433119,22.321110423648143,-9.501932119738315
96,1960,22.158785635,0.4107142857142857,0.276013172155565,0.1823350242798826,0.147115885490331,[nan],-0.24,-0.05,-1.01,[3.1],"5.010,0.367,0.162,1369.,0.622,0.644,0.139,0.995,18",1336.0,1310.0,1383.0,1422.0,3.30839964494527,-0.0404646899534207,22.326933871024185,-9.501707381112263
97,1970,22.405447189999997,0.4221428571428572,0.276013172155565,0.1823350242798826,0.147115885490331,[nan],-0.19,0.05,-0.96,[3.1],"5.010,0.372,0.150,1379.,0.622,0.644,0.139,0.995,18",1334.0,1329.0,1406.0,1422.0,3.313827833659773,-0.1290787248759303,22.32933131985592,-9.50156857767712
98,1980,22.656016412999996,0.422857142857143,0.2741975549026508,0.1850931236971185,0.1270242062967232,[nan],-0.2,0.04,-1.05,[3.1],"5.010,0.370,0.144,1380.,0.621,0.645,0.139,0.995,18",1349.0,1332.0,1401.0,1440.0,3.293657715638319,-0.1218324426511422,22.331906113779112,-9.501453941767284
99,1990,22.899751893999998,0.4171428571428572,0.2741975549026508,0.1850931236971185,0.1270242062967232,[nan],-0.07,0.01,-1.01,[3.1],"5.010,0.372,0.139,1375.,0.622,0.644,0.139,0.995,18",1361.0,1335.0,1400.0,1434.0,3.291211795385871,-0.0781022941352987,22.335420937716737,-9.501327000824215
100,2000,23.135919985999998,0.4107142857142857,0.2760697337412512,0.2049388344338125,0.1300937905414487,[nan],-0.26,0.0,-0.86,[3.1],"5.010,0.372,0.139,1369.,0.622,0.644,0.139,0.995,18",1342.0,1318.0,1372.0,1414.0,3.3541182678734054,-0.0789284916391737,22.340774479732744,-9.501102564798082
101,2010,23.388426764000002,0.4257142857142856,0.2760697337412512,0.2049388344338125,0.1300937905414487,[nan],-0.1,0.03,-1.0,[3.1],"5.010,0.372,0.139,1383.,0.622,0.645,0.139,0.995,18",1378.0,1350.0,1396.0,1450.0,3.292371007182288,-0.1428873241435722,22.3415108944547,-9.501103904796125
102,2020,23.627998208,0.422857142857143,0.2760697337412512,0.2049388344338125,0.1300937905414487,[nan],-0.16,0.02,-0.96,[3.1],"4.935,0.376,0.143,1380.,0.622,0.644,0.139,0.995,18",1356.0,1336.0,1384.0,1422.0,3.297287608218301,-0.1240757045861335,22.34490072129061,-9.500982768952811
103,2030,23.856573392999998,0.4114285714285713,0.2945086920914571,0.2065719952587115,0.1120687857405489,[nan],-0.27,-0.08,-1.01,[3.1],"5.010,0.382,0.136,1370.,0.622,0.644,0.139,0.995,18",1370.0,1329.0,1392.0,1439.0,3.302925353455874,-0.0483533793867743,22.34927661970124,-9.500825278294924
104,2040,24.091215282,0.4242857142857143,0.2965331278446014,0.2036091871210896,0.1321822283795698,[nan],-0.24,0.06,-1.05,[3.1],"5.010,0.367,0.200,1381.,0.622,0.645,0.139,0.995,18",1362.0,1321.0,1405.0,1434.0,3.298979918986626,-0.1388168270338065,22.351207685533243,-9.500746912189303
105,2050,24.329459188999998,0.4285714285714286,0.276013172155565,0.1823350242798826,0.147115885490331,[nan],-0.18,-0.0,-0.96,[3.1],"4.935,0.347,0.213,1385.,0.622,0.644,0.139,0.995,18",1380.0,1295.0,1375.0,1468.0,3.2765820814783857,-0.1552007882584191,22.35346537816147,-9.500649406523344
106,2060,24.563749762999997,0.4014285714285713,0.2756261569895691,0.1597674051373108,0.1641073791948086,[nan],-0.34,0.01,-0.96,[3.1],"5.010,0.340,0.237,1361.,0.622,0.644,0.139,0.995,18",1337.0,1302.0,1368.0,1423.0,3.3521704583308485,-0.0096266450678157,22.36011712407033,-9.500401473441558
107,2070,24.802669967,0.4107142857142857,0.2795611143990178,0.1767608335780106,0.1873083122908418,[nan],-0.2,0.04,-0.94,[3.1],"5.010,0.344,0.241,1369.,0.622,0.644,0.139,0.995,18",1331.0,1323.0,1379.0,1413.0,3.39151339036965,-0.1085899989773071,22.36373866796875,-9.50016410031018
108,2080,25.047558726000005,0.417857142857143,0.2795611143990178,0.1767608335780106,0.1873083122908418,[nan],-0.25,0.04,-0.99,[3.1],"5.010,0.336,0.261,1376.,0.622,0.644,0.139,0.995,18",1358.0,1320.0,1368.0,1440.0,3.390039532883725,-0.1575304714124779,22.3671294902398,-9.499921478888512
109,2090,25.291366836999998,0.4135714285714286,0.2771868273547095,0.156995594158487,0.1841592553064107,[nan],-0.24,0.1,-1.07,[3.1],"5.010,0.328,0.265,1372.,0.622,0.644,0.139,0.995,18",1367.0,1331.0,1401.0,1451.0,3.384599009859604,-0.1224114789702807,22.37114981643563,-9.499696143296788
110,2100,25.525342152,0.3971428571428573,0.2787202390953665,0.1542063669562814,0.2042189869250495,[nan],-0.07,0.09,-0.99,[3.1],"5.010,0.327,0.266,1357.,0.622,0.644,0.139,0.995,18",1365.0,1305.0,1383.0,1433.0,3.423121672022124,-0.0322226194872456,22.37626107587485,-9.49942770915792
111,2110,25.759780280999998,0.417857142857143,0.3015976877319272,0.1718382178866402,0.2091539793921752,[nan],-0.16,-0.06,-0.91,[3.1],"5.010,0.328,0.261,1376.,0.622,0.645,0.139,0.995,18",1353.0,1330.0,1371.0,1413.0,3.424653714335184,-0.1864527512668215,22.378888646980247,-9.49924493126256
112,2120,26.002295984999996,0.4257142857142856,0.3015976877319272,0.1718382178866402,0.2091539793921752,[nan],-0.1,0.07,-0.95,[3.1],"5.010,0.329,0.261,1383.,0.622,0.644,0.139,0.995,18",1362.0,1345.0,1393.0,1429.0,3.377652397699331,-0.2119472162860116,22.38142358316417,-9.499084212097236
113,2130,26.244587873,0.435,0.320248639286376,0.17293206425389,0.1908427422442444,[nan],-0.08,0.02,-0.95,[3.1],"5.010,0.306,0.266,1391.,0.622,0.644,0.139,0.995,18",1351.0,1351.0,1398.0,1426.0,3.2977324635163097,-0.2214609564667418,22.38290801654724,-9.499027699970515
114,2140,26.493795299,0.4528571428571427,0.3177806089963406,0.1532376255095791,0.1872868804798564,[nan],-0.1,0.06,-1.12,[3.1],"5.010,0.293,0.252,1407.,0.622,0.644,0.139,0.995,18",1395.0,1372.0,1414.0,1489.0,3.1526983810494347,-0.2487182154099875,22.37997840385075,-9.499117595221083
115,2150,26.743583225000002,0.43,0.3141084624980602,0.1366980909144566,0.1638678932117005,[nan],-0.1,0.11,-1.03,[3.1],"5.010,0.294,0.225,1387.,0.622,0.644,0.139,0.995,18",1340.0,1363.0,1419.0,1440.0,3.135720970702286,-0.0711598024673997,22.382815738564325,-9.499147602471297
116,2160,26.976289058,0.4314285714285714,0.3162700084832091,0.1564131261459085,0.1673048341112998,[nan],-0.11,-0.0,-1.03,[3.1],"5.010,0.317,0.186,1388.,0.622,0.644,0.139,0.995,18",1382.0,1342.0,1386.0,1440.0,3.109988088267899,-0.0595326384902346,22.383258044683487,-9.499141672100905
117,2170,27.212826799,0.435,0.3209271390740288,0.195861080659863,0.1744077051433118,[nan],-0.15,0.12,-0.99,[3.1],"5.010,0.329,0.186,1391.,0.622,0.644,0.139,0.995,18",1398.0,1342.0,1365.0,1466.0,3.0798856379277995,-0.0649964894309777,22.38324021175044,-9.499143171560553
118,2180,27.462200039000003,0.4271428571428572,0.3004909553665899,0.1976202654347618,0.1724059540706849,[nan],-0.29,0.22,-0.98,[3.1],"5.010,0.354,0.191,1384.,0.622,0.644,0.139,0.995,18",1397.0,1370.0,1388.0,1452.0,3.07709032066305,-0.0059369712641531,22.385081677392144,-9.499125421604344
119,2190,27.706454168999997,0.447142857142857,0.2800772898431951,0.1993567372606066,0.1703881734262476,[nan],-0.23,0.11,-1.11,[3.1],"5.010,0.364,0.194,1402.,0.622,0.644,0.139,0.995,18",1384.0,1359.0,1398.0,1453.0,3.035155980617886,-0.1266503390727367,22.383390281224244,-9.49916603519584
120,2200,27.954153354,0.4285714285714286,0.2393087716132276,0.2027618511009978,0.1663047017687041,[nan],-0.12,0.15,-0.94,[3.1],"5.010,0.305,0.204,1385.,0.622,0.645,0.139,0.995,18",1392.0,1290.0,1328.0,1476.0,3.060523453927382,-0.0079152028789506,22.38669965240724,-9.49915153181213
121,2210,28.203343501999996,0.4242857142857143,0.1965553533373962,0.1861600052167102,0.1598094119550899,[nan],-0.11,0.19,-1.0,[3.1],"5.010,0.275,0.251,1381.,0.622,0.644,0.139,0.995,18",1402.0,1334.0,1358.0,1492.0,3.0557911727532563,0.0277090010428996,22.387804369904075,-9.499152970670195
122,2220,28.461878612999996,0.4192857142857143,0.1754347080471363,0.1444206864288657,0.1941345809241139,[nan],-0.15,0.14,-0.87,[3.1],"5.010,0.261,0.329,1377.,0.622,0.645,0.139,0.995,18",1381.0,1330.0,1369.0,1466.0,3.0827128694370534,0.0483933175727332,22.38984816272125,-9.49911253173295
123,2230,28.718741039,0.4507142857142857,0.1556647890745644,0.1233712367625057,0.2311726157944508,[nan],-0.02,0.01,-0.98,[3.1],"4.935,0.263,0.339,1405.,0.622,0.644,0.139,0.995,18",1419.0,1328.0,1377.0,1510.0,2.986293775178832,-0.1137792665145971,22.38542148513153,-9.499205166409386
124,2240,28.959809463999996,0.4207142857142856,0.1556647890745644,0.1233712367625057,0.2311726157944508,[nan],-0.26,-0.04,-1.15,[3.1],"4.935,0.262,0.350,1378.,0.622,0.644,0.139,0.995,18",1374.0,1336.0,1365.0,1475.0,3.037691432544648,0.06655168569114,22.38983270435084,-9.499185651126025
125,2250,29.194482205,0.4264285714285714,0.1568960641390565,0.1217965317543969,0.2513592726315207,[nan],-0.26,0.13,-1.07,[3.1],"5.010,0.261,0.362,1383.,0.622,0.645,0.139,0.995,18",1335.0,1364.0,1394.0,1414.0,3.085895678148104,-0.0094538779254879,22.39179594518429,-9.49914168306461
126,2260,29.422521537999998,0.4157142857142857,0.1596579630564187,0.1416033704647028,0.2533043496690303,[nan],-0.16,0.03,-0.92,[3.1],"5.010,0.264,0.350,1374.,0.622,0.644,0.139,0.995,18",1374.0,1324.0,1356.0,1451.0,3.14835761786762,0.0244005565189461,22.3956189396666,-9.498975385937598
127,2270,29.656688168000002,0.42,0.1596579630564187,0.1416033704647028,0.2533043496690303,[nan],-0.06,0.04,-0.86,[3.1],"5.010,0.260,0.333,1378.,0.622,0.644,0.139,0.995,18",1363.0,1321.0,1356.0,1430.0,3.207645479691243,-0.0508653123303707,22.39853362935393,-9.498817745331037
128,2280,29.89598813,0.4107142857142857,0.179699873299058,0.1390567166873171,0.2546900621032376,[nan],-0.19,0.04,-0.89,[3.1],"5.010,0.253,0.324,1369.,0.622,0.645,0.139,0.995,18",1361.0,1331.0,1360.0,1435.0,3.2697134253192908,-0.0241068671816486,22.403351533069696,-9.49849852518016
129,2290,30.149387816,0.44,0.1769020972191367,0.1192718786627005,0.2525471574691358,[nan],-0.27,0.14,-0.91,[3.1],"4.935,0.263,0.305,1396.,0.622,0.644,0.139,0.995,18",1384.0,1350.0,1385.0,1463.0,3.205783922409452,-0.1977690713483161,22.403439750062464,-9.498493097704776
130,2300,30.401041223,0.4342857142857143,0.175698532624647,0.1210476968935203,0.2323817603945236,[nan],-0.25,0.13,-1.15,[3.1],"5.010,0.273,0.273,1390.,0.622,0.644,0.139,0.995,18",1356.0,1353.0,1387.0,1450.0,3.1905129444231344,-0.145424063460452,22.40572937736548,-9.49840957061874
131,2310,30.625834462999997,0.4328571428571429,0.1531580275096705,0.1264782794760643,0.1908535053922868,[nan],-0.17,0.25,-0.98,[3.1],"4.935,0.284,0.234,1389.,0.622,0.645,0.139,0.995,18",1353.0,1360.0,1384.0,1453.0,3.150725114421107,-0.1032192688871164,22.40671377517632,-9.4984041245525
132,2320,30.861923315,0.4378571428571427,0.1553129261789154,0.1463624008568018,0.1926829347448817,[nan],-0.18,0.17,-0.97,[3.1],"0.224,0.283,0.229,1394.,0.622,0.645,0.139,0.995,18",1375.0,1344.0,1373.0,1458.0,3.102150552697396,-0.1061485083631175,22.40647292225397,-9.498417035063154
133,2330,31.104899148,0.4307142857142856,0.1135715282628139,0.1513484272109,0.1695103569140304,[nan],-0.16,0.23,-0.96,[3.1],"1.420,0.269,0.228,1387.,0.622,0.644,0.139,0.995,18",1394.0,1354.0,1342.0,1488.0,3.100216912200633,-0.055306059974251,22.408272837133968,-9.498403401121845
134,2340,31.337519463,0.4064285714285713,0.070178106097126,0.135462900843962,0.1452858591693975,[nan],-0.11,0.16,-1.07,[3.1],"-0.59,0.249,0.264,1365.,0.622,0.644,0.139,0.995,18",1398.0,1339.0,1317.0,1495.0,3.147013975604513,0.0916810609772286,22.41222199369017,-9.498346469273589
135,2350,31.568383869999998,0.387142857142857,0.0113103639787408,0.1396603227054207,0.1613569740127826,[nan],-0.03,0.28,-0.82,[3.1],"4.337,0.198,0.316,1348.,0.620,0.644,0.139,0.995,18",1366.0,1320.0,1312.0,1444.0,3.241645011922638,0.1635569107211222,22.417000666075584,-9.498170657046712
136,2360,31.796197907,0.427857142857143,-0.0088984942812554,0.1016371757718272,0.2202818091864407,[nan],-0.01,0.21,-1.01,[3.1],"5.010,0.225,0.321,1385.,0.622,0.644,0.139,0.995,18",1391.0,1323.0,1330.0,1470.0,3.2115590466204824,-0.1140163541445215,22.415587435497912,-9.498263883283782
137,2370,32.039479185,0.4257142857142856,-0.0310311993496503,0.0839325091372507,0.2193646444687512,[nan],0.02,0.1,-1.06,[3.1],"4.935,0.213,0.296,1383.,0.622,0.644,0.139,0.995,18",1411.0,1361.0,1352.0,1486.0,3.1725714847797817,-0.0668900946149453,22.416829420846227,-9.498248732626372
138,2380,32.286635999,0.4264285714285714,-0.0498947650275793,0.1055234688611219,0.1980419068366207,[nan],-0.1,0.06,-0.93,[3.1],"4.636,0.204,0.335,1383.,0.622,0.644,0.139,0.995,18",1391.0,1326.0,1327.0,1474.0,3.196210977535579,-0.0920442616150766,22.419042894680768,-9.498207420763116
139,2390,32.534360055,0.4464285714285713,-0.0709211525749938,0.0883003418579317,0.2176665763651523,[nan],-0.25,0.05,-1.13,[3.1],"3.589,0.139,0.330,1401.,0.622,0.644,0.139,0.995,18",1406.0,1352.0,1350.0,1495.0,3.1104989902185167,-0.1794439585144458,22.41717500051351,-9.498252763770711
140,2400,32.778880592,0.4342857142857143,-0.0972617819045856,0.0308573524737996,0.2192324872337772,[nan],-0.04,0.08,-1.04,[3.1],"5.010,0.077,0.432,1390.,0.623,0.645,0.139,0.995,18",1399.0,1337.0,1324.0,1505.0,3.0941574420831777,-0.0786127640708085,22.41879330894669,-9.498235926504298
141,2410,33.015390518,0.4157142857142857,-0.1216585200995623,-0.004192940315808,0.2614798031134668,[nan],-0.1,0.07,-1.09,[3.1],"4.861,0.078,0.433,1374.,0.622,0.644,0.139,0.995,18",1376.0,1335.0,1342.0,1474.0,3.114705570881686,0.0471786609183604,22.42186906191941,-9.498218923943725
142,2420,33.261012758,0.4128571428571427,-0.1217180748116298,-0.0017362619164353,0.301805269183092,[nan],-0.15,0.1,-1.05,[3.1],"3.514,0.072,0.379,1371.,0.622,0.644,0.139,0.995,18",1361.0,1341.0,1355.0,1437.0,3.17790704645262,0.0192558898537514,22.4254136551462,-9.49807999293287
143,2430,33.493674165,0.4042857142857143,-0.1216944449467011,-0.0029656310763519,0.2816281212309277,[nan],-0.07,0.1,-0.97,[3.1],"2.767,0.082,0.405,1363.,0.622,0.644,0.139,0.995,18",1382.0,1326.0,1331.0,1471.0,3.249792712654251,0.0325786164938241,22.42991613707224,-9.49778149837033
144,2440,33.722419424,0.425,-0.1216944449467011,-0.0029656310763519,0.2816281212309277,[nan],-0.11,0.11,-1.04,[3.1],"4.636,0.106,0.377,1382.,0.622,0.644,0.139,0.995,18",1374.0,1352.0,1345.0,1447.0,3.248221306925431,-0.117879171879382,22.43093887996044,-9.49770569168484
145,2450,33.96865061,0.4342857142857143,-0.1192095725710437,0.0144004977104437,0.2401567220572867,[nan],0.03,0.2,-1.08,[3.1],"3.664,0.180,0.260,1390.,0.622,0.644,0.139,0.995,18",1385.0,1340.0,1344.0,1453.0,3.2130914882874992,-0.1641125898769317,22.4320418185002,-9.497635224009942
146,2460,34.200657498,0.4457142857142857,-0.1143741331004416,0.0704791358517553,0.1766153616126713,[nan],0.1,0.14,-1.07,[3.1],"2.841,0.191,0.295,1401.,0.622,0.645,0.139,0.995,18",1384.0,1408.0,1342.0,1460.0,3.120968730475397,-0.1833914391334642,22.430493108486555,-9.49766969664882
147,2470,34.433418091,0.4285714285714286,-0.1117839839610169,0.0915173679157344,0.1957355293802985,[nan],-0.09,0.24,-1.06,[3.1],"4.337,0.115,0.403,1385.,0.622,0.645,0.139,0.995,18",1397.0,1377.0,1321.0,1454.0,3.109079132259202,-0.048987776651855,22.4323319841286,-9.497673933080174
148,2480,34.672222165,0.4221428571428572,-0.1338594386517225,0.0577856621740551,0.2575612098427527,[nan],0.03,0.13,-0.97,[3.1],"4.786,0.113,0.376,1379.,0.622,0.644,0.139,0.995,18",1367.0,1354.0,1339.0,1422.0,3.145805422296815,-0.029004961871765,22.435015794906683,-9.497647890271296
149,2490,34.914780665,0.4321428571428573,-0.1367525562524709,0.0366132294928656,0.2386787549927843,[nan],0.1,0.15,-0.96,[3.1],"5.010,0.144,0.380,1388.,0.622,0.645,0.139,0.995,18",1378.0,1380.0,1342.0,1450.0,3.132292372616116,-0.093556484612529,22.43594611158556,-9.49761659946379
150,2500,35.174419627,0.4321428571428573,-0.1313735928277846,0.0775929275303537,0.2563950304453412,[nan],-0.08,0.1,-0.89,[3.1],"5.010,0.115,0.434,1388.,0.622,0.644,0.139,0.995,18",1356.0,1386.0,1348.0,1415.0,3.140697583499126,-0.0962997916947997,22.43781611832144,-9.497566068583014
151,2510,35.418031368,0.4257142857142856,-0.1128245909457247,0.0574981179888944,0.2984973144175332,[nan],-0.13,0.03,-1.01,[3.1],"5.010,0.107,0.410,1383.,0.622,0.644,0.139,0.995,18",1368.0,1364.0,1359.0,1415.0,3.183306040952297,-0.081252010028019,22.441419033408373,-9.49742341580985
152,2520,35.653720701,0.4435714285714286,-0.1157581855484629,0.0377452230205599,0.2995121103808392,[nan],-0.11,0.13,-0.92,[3.1],"5.010,0.124,0.315,1399.,0.622,0.644,0.139,0.995,18",1373.0,1385.0,1370.0,1426.0,3.141826064729588,-0.1845934114709021,22.441373813670264,-9.497420304314794
153,2530,35.891687237999996,0.475,-0.1139591254741246,0.0552078332543606,0.2581140730987132,[nan],-0.01,0.22,-1.06,[3.1],"5.010,0.112,0.346,1427.,0.622,0.644,0.139,0.995,18",1408.0,1386.0,1360.0,1473.0,3.013410643965376,-0.3201482894765928,22.437645907313275,-9.497463539517698
154,2540,36.125353571,0.47,-0.1168429909460354,0.034224854580614,0.2390263077040668,[nan],-0.09,0.18,-1.13,[3.1],"4.935,0.124,0.305,1423.,0.622,0.644,0.139,0.995,18",1401.0,1388.0,1378.0,1470.0,2.8917575720160107,-0.199579495927462,22.43481417487212,-9.497397400996478
155,2550,36.365840534,0.4321428571428573,-0.1150442708741156,0.0529013645156442,0.2178430559238861,[nan],0.02,0.23,-1.08,[3.1],"4.935,0.145,0.225,1388.,0.622,0.644,0.139,0.995,18",1383.0,1333.0,1325.0,1465.0,2.8871826284512685,0.0851801375055962,22.4372332072712,-9.497637170574588
156,2560,36.613858977999996,0.45,-0.1360641459740875,0.0523550107816404,0.1771566146448277,[nan],-0.13,0.26,-1.15,[3.1],"5.010,0.144,0.200,1405.,0.622,0.644,0.139,0.995,18",1415.0,1411.0,1385.0,1491.0,2.827124138824084,-0.0027177354005315,22.43321175700365,-9.497572232661115
157,2570,36.852754812,0.435,-0.1350922015687466,0.0708922425612057,0.1558409004826458,[nan],-0.06,0.24,-1.0,[3.1],"5.010,0.097,0.234,1391.,0.622,0.644,0.139,0.995,18",1369.0,1403.0,1358.0,1428.0,2.8500099526851685,0.088536238308115,22.43307523662099,-9.497572160377915
158,2580,37.098954015000004,0.4378571428571427,-0.1381048360141596,0.0310906818595724,0.1584234826540322,[nan],-0.02,0.09,-1.03,[3.1],"5.010,0.030,0.365,1394.,0.622,0.644,0.139,0.995,18",1380.0,1369.0,1314.0,1476.0,2.86282317813539,0.0630177061755664,22.43171466005097,-9.497564401370754
159,2590,37.334572182,0.4428571428571427,-0.1614053100437968,-0.0022131287683166,0.2213480000676153,[nan],0.06,0.17,-1.05,[3.1],"5.010,0.026,0.385,1398.,0.622,0.644,0.139,0.995,18",1422.0,1344.0,1331.0,1502.0,2.8423482865059926,0.0378387963793641,22.42949049415993,-9.497551854643094
160,2600,37.57455583,0.4257142857142856,-0.1638610815259067,-0.0203751384071402,0.2430790895327561,[nan],0.05,0.05,-0.93,[3.1],"5.010,0.026,0.349,1383.,0.622,0.645,0.139,0.995,18",1389.0,1329.0,1317.0,1478.0,2.895095756669444,0.1254834716851537,22.431275781640288,-9.497559316651124
161,2610,37.820486904,0.4307142857142856,-0.1636497714082479,-0.022021976816988,0.2230085932466848,[nan],0.12,0.09,-1.02,[3.1],"5.010,0.027,0.368,1387.,0.622,0.645,0.139,0.995,18",1398.0,1365.0,1331.0,1476.0,2.915391738503125,0.0753827644460708,22.43086942971317,-9.497574521470083
162,2620,38.072578829,0.4242857142857143,-0.1837894173261509,-0.0179403098375598,0.2432671379059871,[nan],-0.02,0.19,-1.08,[3.1],"5.010,0.032,0.420,1381.,0.622,0.644,0.139,0.995,18",1391.0,1340.0,1312.0,1483.0,2.957962324246105,0.0921695518785882,22.43178849239024,-9.49756416586014
163,2630,38.321031903000005,0.4107142857142857,-0.18395877139483,-0.0160894267385907,0.2633437282730366,[nan],-0.05,0.19,-0.98,[3.1],"5.010,0.057,0.408,1369.,0.622,0.644,0.139,0.995,18",1360.0,1380.0,1341.0,1417.0,3.068470765766867,0.1143892935688594,22.435589245363232,-9.497433514258883
164,2640,38.555279385,0.3978571428571427,-0.2012410163304722,0.0062718886459827,0.2614391505126389,[nan],-0.05,0.21,-1.05,[3.1],"5.010,0.071,0.373,1358.,0.622,0.644,0.139,0.995,18",1382.0,1353.0,1308.0,1443.0,3.1722909930020347,0.134876549391638,22.439644309364144,-9.497165057452388
165,2650,38.811670606999996,0.4135714285714286,-0.1989109269883966,0.0240023045974016,0.2394025096370644,[nan],0.1,0.11,-0.93,[3.1],"5.085,0.075,0.325,1372.,0.622,0.644,0.139,0.995,18",1383.0,1354.0,1337.0,1420.0,3.200229912039722,-0.0057741530449466,22.4403185450745,-9.497108920443877
166,2660,39.062181755,0.4264285714285714,-0.1793524655186288,0.0180009721417448,0.1995352751080441,[nan],0.11,0.14,-0.9,[3.1],"10.02,0.068,0.251,1383.,0.622,0.644,0.139,0.995,18",1385.0,1339.0,1307.0,1448.0,3.2149437386402093,-0.1070301908765722,22.44141157828611,-9.497012761035434
167,2670,39.318760366,0.4314285714285714,-0.1796739322847965,0.0144004977104437,0.1595280175034607,[nan],0.08,0.14,-1.01,[3.1],"10.24,0.056,0.240,1388.,0.622,0.644,0.139,0.995,18",1394.0,1370.0,1337.0,1465.0,3.167068384920411,-0.113338638277496,22.4414846680868,-9.497007030152982
168,2680,39.558054921,0.4314285714285714,-0.1411809923497041,-0.0101009255177366,0.1411809923497041,[nan],-0.04,0.12,-1.15,[3.1],"17.87,0.059,0.229,1388.,0.622,0.644,0.139,0.995,18",1379.0,1368.0,1344.0,1460.0,3.1236940018672747,-0.0821304723914453,22.441340594317666,-9.497012562382078
169,2690,39.948241365,0.435,-0.0812332105942889,-0.0143343816257388,0.140816575617775,[nan],-0.09,0.18,-1.0,[3.1],"18.99,0.053,0.243,1391.,0.622,0.644,0.139,0.995,18",1400.0,1367.0,1346.0,1473.0,3.078901878822078,-0.0763583285729993,22.440344755536795,-9.497019271150773
170,2700,40.369484365,0.4142857142857143,0.018554227902741,-0.0213505568670002,0.1399305379560403,[nan],-0.02,0.06,-1.1,[3.1],"22.43,0.032,0.273,1372.,0.622,0.644,0.139,0.995,18",1398.0,1320.0,1307.0,1489.0,3.114706103122894,0.051582067397051,22.442872790983664,-9.4970223929814
171,2710,40.64132555,0.4321428571428573,0.0779144335242438,-0.0271050775443528,0.1793411726713481,[nan],-0.12,0.08,-1.04,[3.1],"20.71,0.034,0.268,1388.,0.622,0.644,0.139,0.995,18",1389.0,1332.0,1332.0,1441.0,3.1064307458351323,-0.0748102845126851,22.442143821103144,-9.497051125485113
172,2720,40.868517604999994,0.4335714285714286,0.1195877305904704,-0.0108002099630206,0.1799235303762076,[nan],0.09,-0.03,-1.1,[3.1],"14.73,0.044,0.265,1390.,0.622,0.644,0.139,0.995,18",1402.0,1342.0,1358.0,1464.0,3.0739756241306724,-0.0599965642921858,22.44188255027765,-9.497056351759948
173,2730,41.09948330900001,0.4314285714285714,0.1595280175034607,-0.0144004977104437,0.1796739322847965,[nan],0.01,0.07,-1.04,[3.1],"8.226,0.092,0.299,1388.,0.622,0.644,0.139,0.995,18",1380.0,1341.0,1355.0,1451.0,3.0714655432650724,-0.0439320989515043,22.44244114031869,-9.49705702497102
174,2740,41.349323420000005,0.4514285714285713,0.1831724967098041,0.0234687649507367,0.1831724967098041,[nan],0.03,0.13,-1.04,[3.1],"5.085,0.133,0.258,1406.,0.622,0.645,0.139,0.995,18",1412.0,1365.0,1369.0,1444.0,2.9787292363904188,-0.1226282066244115,22.438925264466032,-9.497073140134464
175,2750,41.592813994,0.4307142857142856,0.1681895557572096,0.0865400297621625,0.1681895557572096,[nan],0.03,0.05,-0.96,[3.1],"5.085,0.139,0.247,1387.,0.622,0.645,0.139,0.995,18",1411.0,1387.0,1351.0,1425.0,2.9955056357328687,0.014676711487135,22.440616461658124,-9.497100998958317
176,2760,41.839337068000006,0.4192857142857143,0.1681895557572096,0.0865400297621625,0.1681895557572096,[nan],0.03,0.1,-0.95,[3.1],"7.702,0.124,0.247,1377.,0.622,0.644,0.139,0.995,18",1399.0,1376.0,1364.0,1431.0,2.976645960849465,0.112671122196466,22.44043225075496,-9.49715663352328
177,2770,42.079194105,0.4307142857142856,0.1446160558008141,0.0484518320386562,0.1641489493933539,[nan],0.04,-0.0,-1.09,[3.1],"5.010,0.105,0.255,1387.,0.622,0.645,0.139,0.995,18",1408.0,1300.0,1294.0,1455.0,2.967981926012457,0.0381994750907115,22.438967949073035,-9.497214360677544
178,2780,42.31315216,0.4292857142857143,0.1246224592689319,0.0500930512709905,0.1636596005907939,[nan],0.04,0.1,-0.93,[3.1],"5.010,0.100,0.255,1386.,0.622,0.645,0.139,0.995,18",1394.0,1361.0,1340.0,1434.0,3.019686950142787,0.0122540847999009,22.44030522020248,-9.497248282041518
179,2790,42.544039567,0.427857142857143,0.104639356956584,0.0517283423634382,0.1631542189328194,[nan],-0.06,0.25,-1.07,[3.1],"5.010,0.097,0.266,1385.,0.622,0.645,0.139,0.995,18",1424.0,1371.0,1361.0,1475.0,3.004711234788167,0.0335369468935369,22.439918557817844,-9.497281619358438
180,2800,42.783258604,0.4314285714285714,0.1051517440673359,0.050675689005512,0.1832192702016032,[nan],-0.06,0.18,-0.94,[3.1],"5.010,0.088,0.265,1388.,0.622,0.644,0.139,0.995,18",1389.0,1369.0,1362.0,1434.0,2.9870543325886247,0.0169263342594228,22.43897494148005,-9.497285148538111
181,2810,43.01720501199999,0.46,0.0833356364298195,0.0326032631143509,0.1817843095957854,[nan],-0.07,-0.0,-1.09,[3.1],"5.010,0.082,0.265,1414.,0.622,0.645,0.139,0.995,18",1405.0,1371.0,1366.0,1444.0,2.904627622038612,-0.1316921636275393,22.434690316167057,-9.497286560828934
182,2820,43.26723071500001,0.442142857142857,0.0833356364298195,0.0326032631143509,0.1817843095957854,[nan],-0.1,0.08,-1.09,[3.1],"5.010,0.090,0.258,1397.,0.622,0.644,0.139,0.995,18",1401.0,1372.0,1370.0,1435.0,2.926192923512393,-0.0154306022346666,22.43578138034136,-9.497306265189374
183,2830,43.516226585,0.4435714285714286,0.0633973156916769,0.0344183511699154,0.1814529705014444,[nan],-0.11,0.2,-1.02,[3.1],"5.010,0.098,0.308,1399.,0.622,0.644,0.139,0.995,18",1393.0,1360.0,1350.0,1459.0,2.9118847474615257,-0.0157552245213282,22.43447626321332,-9.497300022360324
184,2840,43.755492380999996,0.4657142857142857,0.0239140818288173,0.0377984457755362,0.2008371460452044,[nan],-0.04,0.12,-1.1,[3.1],"5.010,0.102,0.281,1419.,0.622,0.644,0.139,0.995,18",1427.0,1341.0,1350.0,1468.0,2.828242470078808,-0.121886712046992,22.42964761140577,-9.497237692777174
185,2850,43.981004436999996,0.415,0.0040031811776398,0.0398019645584202,0.2004547338039264,[nan],-0.18,0.11,-1.03,[3.1],"5.010,0.069,0.129,1373.,0.622,0.645,0.139,0.995,18",1387.0,1345.0,1363.0,1412.0,2.9557808770111844,0.1605591579692963,22.4353642588562,-9.4973313421295
186,2860,44.216910139999996,0.47,-0.0199753214422005,0.0010000001666667,0.1000367322537657,[nan],0.0,0.12,-1.13,[3.1],"5.010,0.060,-0.02,1423.,0.622,0.644,0.139,0.995,18",1428.0,1338.0,1356.0,1480.0,2.838983202591826,-0.1603154847836355,22.428353054056323,-9.497402296650955
187,2870,44.47033036299999,0.44,-0.0400086678964983,-0.0199963319480591,0.000400079994657,[nan],-0.13,-0.02,-1.04,[3.1],"5.010,0.074,0.041,1396.,0.622,0.644,0.139,0.995,18",1401.0,1368.0,1357.0,1507.0,2.821217459619428,0.0750070313283951,22.427388499892704,-9.497366925932935
188,2880,44.70547802899999,0.427857142857143,-0.059815324992472,-0.0205904518868464,-0.0193943236507512,[nan],-0.11,0.14,-0.91,[3.1],"5.010,0.107,0.125,1385.,0.622,0.645,0.139,0.995,18",1369.0,1355.0,1367.0,1475.0,2.856984360287837,0.1388350762493682,22.42739691000055,-9.49737181273449
189,2890,44.938089862,0.42,-0.0999968722189909,0.0030000045000182,0.0599340576850434,[nan],-0.09,0.05,-1.03,[3.1],"5.010,0.116,0.157,1378.,0.621,0.644,0.139,0.995,18",1402.0,1319.0,1336.0,1453.0,2.9284274303700832,0.1462737204996285,22.42808222781258,-9.49738960896822
190,2900,45.18827391799999,0.4414285714285713,-0.0975315193862392,0.0458858886015978,0.1180069836739041,[nan],-0.08,0.09,-0.99,[3.1],"5.010,0.109,0.149,1397.,0.622,0.644,0.139,0.995,18",1422.0,1338.0,1360.0,1437.0,2.910852100880729,-0.0019141988398688,22.42495428869349,-9.49741022469018
191,2910,45.43378289900001,0.4128571428571427,-0.0975315193862392,0.0458858886015978,0.1180069836739041,[nan],-0.08,0.01,-0.92,[3.1],"5.010,0.108,0.148,1371.,0.622,0.644,0.139,0.995,18",1362.0,1340.0,1362.0,1403.0,2.9698252876380344,0.1724360483238601,22.42731776712684,-9.49747100755328
192,2920,45.696409009999996,0.4321428571428573,-0.0986827542103173,0.0259408128766343,0.1189476374088423,[nan],-0.16,0.04,-1.04,[3.1],"5.010,0.109,0.144,1388.,0.622,0.644,0.139,0.995,18",1379.0,1364.0,1370.0,1421.0,2.9497743235260345,0.0408216222915871,22.4248387291007,-9.497509133055797
193,2930,45.941364343000004,0.4485714285714286,-0.0989367479297573,0.0249515237752646,0.0989367479297573,[nan],-0.06,0.1,-1.04,[3.1],"5.010,0.106,0.140,1403.,0.622,0.644,0.139,0.995,18",1391.0,1388.0,1383.0,1433.0,2.8866946446959343,-0.0323216270040071,22.42105565758757,-9.497494660286849
194,2940,46.177779621,0.4478571428571427,-0.0784090687764293,0.0431413160810325,0.0784090687764293,[nan],-0.06,0.13,-0.98,[3.1],"3.888,0.102,0.175,1403.,0.622,0.645,0.139,0.995,18",1376.0,1399.0,1394.0,1433.0,2.831013833342677,0.0134866101659914,22.417561186966683,-9.497403301213248
195,2950,46.419433047,0.4378571428571427,-0.0587118450949288,0.0235561254313823,0.1194405278931208,[nan],-0.08,-0.04,-1.0,[3.1],"-6.05,0.116,0.148,1394.,0.622,0.644,0.139,0.995,18",1377.0,1374.0,1418.0,1414.0,2.828780422990429,0.0895781654705328,22.415943791430266,-9.497353210257945
196,2960,46.684314545999996,0.4442857142857143,-0.1186831973251338,0.0271301943490565,0.1186831973251338,[nan],0.09,-0.11,-0.96,[3.1],"-9.34,0.116,0.143,1399.,0.622,0.644,0.139,0.995,18",1419.0,1346.0,1379.0,1458.0,2.8025193101407653,0.0571644454514492,22.412617546862613,-9.497274597605648
197,2970,46.929585602,0.4321428571428573,-0.178456405004391,0.0324742756199367,0.1377879776028627,[nan],0.07,0.1,-0.97,[3.1],"5.010,0.116,0.144,1388.,0.622,0.644,0.139,0.995,18",1436.0,1317.0,1338.0,1471.0,2.828326593540674,0.1320457365916651,22.41161744614575,-9.49725129507425
198,2980,47.172747305,0.4307142857142856,-0.2401567220572867,0.0144004977104437,0.1192095725710437,[nan],-0.09,0.11,-0.99,[3.1],"17.42,0.116,0.145,1387.,0.622,0.644,0.139,0.995,18",1448.0,1295.0,1307.0,1493.0,2.875852556301006,0.1083560355228838,22.41099384015284,-9.497255731000486
199,2990,47.41140697200001,0.4314285714285714,-0.220056935175681,0.0132003833580591,0.1193477744380655,[nan],-0.1,0.11,-0.88,[3.1],"37.84,0.117,0.144,1388.,0.622,0.644,0.139,0.995,18",1451.0,1308.0,1308.0,1486.0,2.8857469023725613,0.0946831484614369,22.40949129252669,-9.497254237584372
200,3000,47.668049231,0.427857142857143,-0.1386963765562812,0.0283175987317674,0.1184067323766147,[nan],0.0,-0.1,-1.04,[3.1],"37.09,0.116,0.144,1385.,0.622,0.644,0.139,0.995,18",1423.0,1316.0,1329.0,1469.0,2.9182665525168376,0.1007564649365624,22.40923557629777,-9.49725434560733
201,3010,47.906083656999996,0.422857142857143,-0.0179860257047769,0.0409514000060913,0.0996984164508087,[nan],-0.19,-0.01,-1.06,[3.1],"39.26,0.115,0.143,1380.,0.622,0.644,0.139,0.995,18",1405.0,1327.0,1338.0,1448.0,2.957881937796083,0.1065150738891494,22.409312977315324,-9.49725276868934
202,3020,48.150570583000004,0.4285714285714286,0.1019682269773462,0.0348989374847286,0.1019682269773462,[nan],-0.13,0.05,-1.01,[3.1],"41.87,0.114,0.141,1385.,0.622,0.643,0.139,0.995,18",1380.0,1354.0,1368.0,1439.0,2.96776387766983,0.0557196423707243,22.408073123376543,-9.497264057481544
203,3030,48.39039998999999,0.4292857142857143,0.2430489334648033,0.0499115600287196,0.0867377206132631,[nan],-0.09,0.04,-1.14,[3.1],"45.02,0.112,0.142,1386.,0.622,0.644,0.139,0.995,18",1405.0,1332.0,1359.0,1462.0,2.966849628740305,0.0517398257936164,22.40701837032005,-9.497267545009388
204,3040,48.627244970999996,0.4071428571428573,0.3851704741647285,0.0398135785346802,0.1097118314327146,[nan],-0.15,0.14,-1.08,[3.1],"46.29,0.111,0.144,1366.,0.622,0.644,0.139,0.995,18",1400.0,1323.0,1365.0,1462.0,2.987969912758051,0.2029627840154984,22.408185836849864,-9.49738904510494
205,3050,48.856660953,0.4357142857142856,0.5296785334984541,0.0563458267072798,0.0982295508421548,[nan],-0.2,-0.18,-1.0,[3.1],"43.37,0.112,0.139,1392.,0.622,0.644,0.139,0.995,18",1353.0,1364.0,1390.0,1387.0,3.00053197729227,-0.0167114563121029,22.406427907536457,-9.49744050956362
206,3060,49.093411804,0.4164285714285713,0.67715090372143,0.0744866922818168,0.0899006945563321,[nan],-0.04,-0.11,-0.86,[3.1],"18.32,0.115,0.135,1374.,0.622,0.644,0.139,0.995,18",1339.0,1348.0,1389.0,1382.0,3.0521162595697127,0.0889324400487661,22.40840485011252,-9.49745068977774
207,3070,49.326962193,0.4371428571428573,0.7197378939677813,0.0725569613535079,0.0914637761736673,[nan],-0.09,-0.04,-0.95,[3.1],"5.010,0.166,0.125,1393.,0.622,0.644,0.139,0.995,18",1339.0,1384.0,1430.0,1397.0,3.0163569048004826,-0.0408328048514884,22.406231867664484,-9.497496535137811
208,3080,49.56770256300001,0.457142857142857,0.7420315019595058,0.0974509023602916,0.0809039105342326,[nan],0.0,-0.02,-0.99,[3.1],"5.010,0.192,0.112,1411.,0.622,0.644,0.139,0.995,18",1378.0,1412.0,1427.0,1412.0,2.90681134650374,-0.1094543969565916,22.401693231919285,-9.497460011205314
209,3090,49.808581247999996,0.4528571428571427,0.7661775108744964,0.1411525552121086,0.0785719907333739,[nan],-0.15,0.12,-1.15,[3.1],"5.010,0.195,0.095,1407.,0.622,0.645,0.139,0.995,18",1370.0,1451.0,1444.0,1404.0,2.806359768184595,-0.0069413780909947,22.397802188718227,-9.49733062419058
210,3100,50.052836396000004,0.43,0.7867962386648791,0.1479827964208715,0.0615106366835795,[nan],-0.0,-0.03,-1.11,[3.1],"5.010,0.201,0.112,1387.,0.622,0.644,0.139,0.995,18",1374.0,1401.0,1403.0,1400.0,2.8432981751858857,0.1402849268799184,22.39827516785589,-9.497343401666615
211,3110,50.307006433,0.4621428571428573,0.833828848156166,0.1568073473737332,0.0914891158319197,[nan],0.12,0.02,-1.03,[3.1],"5.010,0.199,0.135,1415.,0.622,0.644,0.139,0.995,18",1374.0,1403.0,1393.0,1396.0,2.779192579389957,-0.0560920396680796,22.392757247937325,-9.497245562332555
