timestamp,throttle_ref,yaw,pitch,roll,tof_measurement,accX,accY,accZ,altitude_ref,RC_data,mot_FL,mot_FR,mot_BL,mot_BR,KF_altitutde_est,KF_velocity_z_est,KF_alpha_est,KF_beta_est
4250.64746,0.0,0.0,0.0,0.0,[-1.],0.0,0.0,0.0,-1,"0.0,0.0,0.0,1000.,0.390,0.340,0.134,1.0,17",0.0,0.0,0.0,0.0,0.0,0.0,0.0,0.0
4278.244164,0.0,0.0,0.0,0.0,[-1.],0.0,0.0,0.0,-1,"0.0,0.0,0.0,1000.,0.390,0.340,0.134,1.0,17",0.0,0.0,0.0,0.0,0.0,0.0,0.0,0.0
4344.904812,0.0,0.0,0.0,0.0,[-1.],0.0,0.0,0.0,-1,"0.0,0.0,0.0,1000.,0.390,0.340,0.134,1.0,17",0.0,0.0,0.0,0.0,0.0,0.0,0.0,0.0
4365.441071,0.0,0.0,0.0,0.0,[-1.],0.0,0.0,0.0,-1,"0.0,0.0,0.0,1000.,0.390,0.340,0.134,1.0,17",0.0,0.0,0.0,0.0,0.0,0.0,0.0,0.0
4430.193256,0.0,0.0,0.0,0.0,[-1.],0.0,0.0,0.0,-1,"0.0,0.0,0.0,1000.,0.390,0.340,0.134,1.0,17",0.0,0.0,0.0,0.0,0.0,0.0,0.0,0.0
4450.690886,0.0,0.0,0.0,0.0,[-1.],0.0,0.0,0.0,-1,"0.0,0.0,0.0,1000.,0.390,0.340,0.134,1.0,17",0.0,0.0,0.0,0.0,0.0,0.0,0.0,0.0
4495.142664,0.0,0.0,0.0,0.0,[-1.],0.0,0.0,0.0,-1,"0.0,0.0,0.0,1000.,0.39,0.340,0.134,1.0,17",0.0,0.0,0.0,0.0,0.0,0.0,0.0,0.0
4581.099497,0.0,0.0,0.0,0.0,[-1.],0.0,0.0,0.0,-1,"0.0,0.0,0.0,1000.,0.390,0.340,0.134,1.0,17",0.0,0.0,0.0,0.0,0.0,0.0,0.0,0.0
4677.095645,0.0,0.0,0.0,0.0,[-1.],0.0,0.0,0.0,-1,"0.0,0.0,0.0,1000.,0.390,0.34,0.134,1.0,17",0.0,0.0,0.0,0.0,0.0,0.0,0.0,0.0
4789.616386,0.0,0.0,0.0,0.0,[-1.],-1.0,-1.0,-1.0,-1,"0.0,0.0,0.0,1000.,0.39,0.34,0.134,1.0,17",-1.0,-1.0,-1.0,-1.0,0.0,0.0,0.0,0.0
4999.63546,0.0,0.0,0.0,0.0,[-1.],-1.0,-1.0,-1.0,-1,"0.0,0.0,0.0,1000.,0.39,0.340,0.134,1.0,17",-1.0,-1.0,-1.0,-1.0,0.0,0.0,0.0,0.0
5198.027237,0.0,0.0,0.0,0.0,[-1.],-1.0,-1.0,-1.0,-1,"0.0,0.0,0.0,1000.,0.390,0.340,0.134,1.0,17",-1.0,-1.0,-1.0,-1.0,0.0,0.0,0.0,0.0
5376.805274,0.0,0.0,0.0,0.0,[-1.],-1.0,-1.0,-1.0,-1,"0.0,0.0,0.0,1000.,0.390,0.340,0.134,1.0,17",-1.0,-1.0,-1.0,-1.0,0.0,0.0,0.0,0.0
5507.852571,0.0,0.0,0.0,0.0,[-1.],-1.0,-1.0,-1.0,-1,"0.0,0.0,0.0,1000.,0.390,0.340,0.135,1.0,17",-1.0,-1.0,-1.0,-1.0,0.0,0.0,0.0,0.0
5657.063534,0.0,0.0,0.0,0.0,[-1.],-1.0,-1.0,-1.0,-1,"0.0,0.0,0.0,1000.,0.390,0.340,0.134,1.0,17",-1.0,-1.0,-1.0,-1.0,0.0,0.0,0.0,0.0
5917.992607,0.0042857142857143215,0.0,0.0,0.0,[-1.],-1.0,-1.0,-1.0,-1,"4.412,0.048,-0.04,1003.,0.390,0.340,0.134,0.995,16",-1.0,-1.0,-1.0,-1.0,0.0,0.0,0.0,0.0
6065.387237,0.0042857142857143215,0.0,0.0,0.0,[-1.],-1.0,-1.0,-1.0,-1,"4.412,0.048,-0.04,1003.,0.39,0.340,0.134,0.995,16",-1.0,-1.0,-1.0,-1.0,0.0,0.0,0.0,0.0
6162.156459,0.0042857142857143215,0.0,0.0,0.0,[-1.],-1.0,-1.0,-1.0,-1,"4.337,0.047,-0.04,1003.,0.390,0.340,0.134,0.995,16",-1.0,-1.0,-1.0,-1.0,0.0,0.0,0.0,0.0
6266.277589,0.0042857142857143215,0.0,0.0,0.0,[-1.],-1.0,-1.0,-1.0,-1,"4.412,0.048,-0.04,1003.,0.39,0.340,0.134,0.995,16",-1.0,-1.0,-1.0,-1.0,0.0,0.0,0.0,0.0
6406.162848,0.0042857142857143215,0.0,0.0,0.0,[-1.],-1.0,-1.0,-1.0,-1,"4.412,0.048,-0.04,1003.,0.39,0.340,0.134,0.995,16",-1.0,-1.0,-1.0,-1.0,0.0,0.0,0.0,0.0
6466.474737,0.0042857142857143215,0.0,0.0,0.0,[-1.],-1.0,-1.0,-1.0,-1,"4.412,0.048,-0.04,1003.,0.390,0.340,0.134,0.995,16",-1.0,-1.0,-1.0,-1.0,0.0,0.0,0.0,0.0
6576.289811,0.0042857142857143215,0.0,0.0,0.0,[-1.],-1.0,-1.0,-1.0,-1,"4.337,0.047,-0.04,1003.,0.390,0.340,0.134,0.995,16",-1.0,-1.0,-1.0,-1.0,0.0,0.0,0.0,0.0
6731.426311,0.0042857142857143215,0.0,0.0,0.0,[-1.],-1.0,-1.0,-1.0,-1,"4.337,0.048,-0.04,1003.,0.39,0.340,0.134,0.995,16",-1.0,-1.0,-1.0,-1.0,0.0,0.0,0.0,0.0
6867.213977,0.0042857142857143215,0.0,0.0,0.0,[-1.],-1.0,-1.0,-1.0,-1,"4.337,0.048,-0.04,1003.,0.390,0.340,0.134,0.995,16",-1.0,-1.0,-1.0,-1.0,0.0,0.0,0.0,0.0
6929.969125,0.0042857142857143215,0.0,0.0,0.0,[-1.],-1.0,-1.0,-1.0,-1,"4.337,0.048,-0.04,1003.,0.390,0.340,0.135,0.995,16",-1.0,-1.0,-1.0,-1.0,0.0,0.0,0.0,0.0
7097.013922,0.0042857142857143215,0.0,0.0,0.0,[-1.],-1.0,-1.0,-1.0,-1,"4.337,0.047,-0.04,1003.,0.390,0.34,0.134,0.995,16",-1.0,-1.0,-1.0,-1.0,0.0,0.0,0.0,0.0
7261.192755,0.0042857142857143215,0.0,0.0,0.0,[-1.],-1.0,-1.0,-1.0,-1,"4.337,0.048,-0.04,1003.,0.390,0.34,0.134,0.995,16",-1.0,-1.0,-1.0,-1.0,0.0,0.0,0.0,0.0
7352.768403,0.0042857142857143215,0.0,0.0,0.0,[-1.],-1.0,-1.0,-1.0,-1,"4.337,0.048,-0.04,1003.,0.390,0.340,0.134,0.995,16",-1.0,-1.0,-1.0,-1.0,0.0,0.0,0.0,0.0
7433.525032,0.0042857142857143215,0.0,0.0,0.0,[-1.],-1.0,-1.0,-1.0,-1,"4.337,0.048,-0.04,1003.,0.39,0.34,0.134,0.995,16",-1.0,-1.0,-1.0,-1.0,0.0,0.0,0.0,0.0
7562.075995,0.0042857142857143215,0.0,0.0,0.0,[-1.],-1.0,-1.0,-1.0,-1,"4.337,0.048,-0.04,1003.,0.39,0.340,0.134,0.995,16",-1.0,-1.0,-1.0,-1.0,0.0,0.0,0.0,0.0
7702.885255,0.0042857142857143215,0.0,0.0,0.0,[-1.],-1.0,-1.0,-1.0,-1,"4.337,0.048,-0.04,1003.,0.390,0.340,0.134,0.995,16",-1.0,-1.0,-1.0,-1.0,0.0,0.0,0.0,0.0
7776.737106,0.0042857142857143215,0.0,0.0,0.0,[-1.],-1.0,-1.0,-1.0,-1,"4.337,0.048,-0.04,1003.,0.390,0.340,0.134,0.995,16",-1.0,-1.0,-1.0,-1.0,0.0,0.0,0.0,0.0
7861.279977,0.0042857142857143215,0.0,0.0,0.0,[-1.],-1.0,-1.0,-1.0,-1,"4.412,0.048,-0.04,1003.,0.39,0.34,0.134,0.995,16",-1.0,-1.0,-1.0,-1.0,0.0,0.0,0.0,0.0
7937.352569,0.0042857142857143215,0.0,0.0,0.0,[-1.],-1.0,-1.0,-1.0,-1,"4.412,0.047,-0.04,1003.,0.39,0.34,0.134,0.995,16",-1.0,-1.0,-1.0,-1.0,0.0,0.0,0.0,0.0
8006.159347,0.0042857142857143215,0.0,0.0,0.0,[-1.],-1.0,-1.0,-1.0,-1,"4.337,0.047,-0.04,1003.,0.390,0.340,0.134,0.995,16",-1.0,-1.0,-1.0,-1.0,0.0,0.0,0.0,0.0
8109.599847,0.0042857142857143215,0.0,0.0,0.0,[-1.],-1.0,-1.0,-1.0,-1,"4.337,0.048,-0.04,1003.,0.390,0.340,0.134,0.995,16",-1.0,-1.0,-1.0,-1.0,0.0,0.0,0.0,0.0
8184.795384,0.0042857142857143215,0.0,0.0,0.0,[-1.],-1.0,-1.0,-1.0,-1,"4.337,0.047,-0.04,1003.,0.390,0.34,0.134,0.995,16",-1.0,-1.0,-1.0,-1.0,0.0,0.0,0.0,0.0
8269.74755,0.0042857142857143215,0.0,0.0,0.0,[-1.],-1.0,-1.0,-1.0,-1,"4.337,0.048,-0.04,1003.,0.390,0.34,0.134,0.995,16",-1.0,-1.0,-1.0,-1.0,0.0,0.0,0.0,0.0
8366.376828,0.0042857142857143215,0.0,0.0,0.0,[-1.],-1.0,-1.0,-1.0,-1,"4.337,0.048,-0.04,1003.,0.390,0.340,0.134,0.995,16",-1.0,-1.0,-1.0,-1.0,0.0,0.0,0.0,0.0
8414.689717,0.0042857142857143215,0.0,0.0,0.0,[-1.],-1.0,-1.0,-1.0,-1,"4.337,0.048,-0.04,1003.,0.390,0.340,0.135,0.995,16",-1.0,-1.0,-1.0,-1.0,0.0,0.0,0.0,0.0
8568.618791,0.0042857142857143215,0.0,0.0,0.0,[-1.],-1.0,-1.0,-1.0,-1,"4.337,0.047,-0.04,1003.,0.390,0.340,0.134,0.995,16",-1.0,-1.0,-1.0,-1.0,0.0,0.0,0.0,0.0
8765.218217,0.0042857142857143215,0.0,0.0,0.0,[-1.],-1.0,-1.0,-1.0,-1,"4.337,0.048,-0.04,1003.,0.390,0.340,0.134,0.995,16",-1.0,-1.0,-1.0,-1.0,0.0,0.0,0.0,0.0
8976.804032,0.0042857142857143215,0.0,0.0,0.0,[-1.],-1.0,-1.0,-1.0,-1,"4.412,0.048,-0.04,1003.,0.390,0.340,0.134,0.995,16",-1.0,-1.0,-1.0,-1.0,0.0,0.0,0.0,0.0
9076.884235,0.0042857142857143215,0.0,0.0,0.0,[-1.],-1.0,-1.0,-1.0,-1,"4.337,0.048,-0.04,1003.,0.39,0.340,0.134,0.995,16",-1.0,-1.0,-1.0,-1.0,0.0,0.0,0.0,0.0
9255.194513,0.0042857142857143215,0.0,0.0,0.0,[-1.],-1.0,-1.0,-1.0,-1,"4.337,0.048,-0.04,1003.,0.390,0.340,0.134,0.995,16",-1.0,-1.0,-1.0,-1.0,0.0,0.0,0.0,0.0
9408.04755,0.0042857142857143215,0.0,0.0,0.0,[-1.],-1.0,-1.0,-1.0,-1,"4.337,0.047,-0.04,1003.,0.390,0.340,0.134,0.995,16",-1.0,-1.0,-1.0,-1.0,0.0,0.0,0.0,0.0
9575.670161,0.0042857142857143215,0.0,0.0,0.0,[-1.],-1.0,-1.0,-1.0,-1,"4.337,0.048,-0.04,1003.,0.39,0.340,0.134,0.995,16",-1.0,-1.0,-1.0,-1.0,0.0,0.0,0.0,0.0
9722.516253,0.0042857142857143215,0.0,0.0,0.0,[-1.],-1.0,-1.0,-1.0,-1,"4.337,0.048,-0.04,1003.,0.390,0.340,0.134,0.995,16",-1.0,-1.0,-1.0,-1.0,0.0,0.0,0.0,0.0
9824.99579,0.0042857142857143215,0.0,0.0,0.0,[-1.],-1.0,-1.0,-1.0,-1,"4.337,0.047,-0.04,1003.,0.39,0.34,0.134,0.995,16",-1.0,-1.0,-1.0,-1.0,0.0,0.0,0.0,0.0
9913.029049,0.0042857142857143215,0.0,0.0,0.0,[-1.],-1.0,-1.0,-1.0,-1,"4.412,0.048,-0.04,1003.,0.39,0.34,0.134,0.995,16",-1.0,-1.0,-1.0,-1.0,0.0,0.0,0.0,0.0
10020.707586,0.0042857142857143215,0.0,0.0,0.0,[-1.],-1.0,-1.0,-1.0,-1,"4.113,0.048,-0.04,1003.,0.39,0.340,0.134,0.995,16",-1.0,-1.0,-1.0,-1.0,0.0,0.0,0.0,0.0
10078.416309,0.0042857142857143215,0.0,0.0,0.0,[-1.],-1.0,-1.0,-1.0,-1,"4.188,0.048,-0.04,1003.,0.390,0.340,0.134,0.995,16",-1.0,-1.0,-1.0,-1.0,0.0,0.0,0.0,0.0
10181.837994,0.0042857142857143215,0.0,0.0,0.0,[-1.],-1.0,-1.0,-1.0,-1,"5.758,0.048,-0.04,1003.,0.39,0.34,0.134,0.995,16",-1.0,-1.0,-1.0,-1.0,0.0,0.0,0.0,0.0
10208.493457,0.0042857142857143215,0.0,0.0,0.0,[-1.],-1.0,-1.0,-1.0,-1,"5.758,0.048,-0.04,1003.,0.39,0.34,0.134,0.995,16",-1.0,-1.0,-1.0,-1.0,0.0,0.0,0.0,0.0
10326.649975,0.0042857142857143215,0.0,0.0,0.0,[-1.],-1.0,-1.0,-1.0,-1,"4.188,0.047,-0.04,1003.,0.390,0.340,0.134,0.995,16",-1.0,-1.0,-1.0,-1.0,0.0,0.0,0.0,0.0
10473.125475,0.0042857142857143215,0.0,0.0,0.0,[-1.],-1.0,-1.0,-1.0,-1,"4.262,0.048,-0.04,1003.,0.39,0.34,0.134,0.995,16",-1.0,-1.0,-1.0,-1.0,0.0,0.0,0.0,0.0
10657.044642,0.0042857142857143215,0.0,0.0,0.0,[-1.],-1.0,-1.0,-1.0,-1,"4.262,0.048,-0.04,1003.,0.390,0.340,0.134,0.995,16",-1.0,-1.0,-1.0,-1.0,0.0,0.0,0.0,0.0
10761.795142,0.0042857142857143215,0.0,0.0,0.0,[-1.],-1.0,-1.0,-1.0,-1,"4.262,0.048,-0.04,1003.,0.390,0.340,0.134,0.995,16",-1.0,-1.0,-1.0,-1.0,0.0,0.0,0.0,0.0
10893.077623,0.0042857142857143215,0.0,0.0,0.0,[-1.],-1.0,-1.0,-1.0,-1,"4.262,0.055,-0.04,1003.,0.390,0.340,0.134,0.995,16",-1.0,-1.0,-1.0,-1.0,0.0,0.0,0.0,0.0
10947.563197,0.0042857142857143215,0.0,0.0,0.0,[-1.],-1.0,-1.0,-1.0,-1,"4.262,0.059,-0.04,1003.,0.39,0.340,0.134,0.995,16",-1.0,-1.0,-1.0,-1.0,0.0,0.0,0.0,0.0
11037.462641,0.0042857142857143215,0.0,0.0,0.0,[-1.],-1.0,-1.0,-1.0,-1,"4.262,0.061,-0.04,1003.,0.39,0.340,0.134,0.995,16",-1.0,-1.0,-1.0,-1.0,0.0,0.0,0.0,0.0
11104.801567,0.0042857142857143215,0.0,0.0,0.0,[-1.],-1.0,-1.0,-1.0,-1,"4.262,0.068,-0.04,1003.,0.390,0.340,0.134,0.995,16",-1.0,-1.0,-1.0,-1.0,0.0,0.0,0.0,0.0
11190.315456,0.0042857142857143215,0.0,0.0,0.0,[-1.],-1.0,-1.0,-1.0,-1,"4.188,0.100,-0.04,1003.,0.390,0.34,0.134,0.995,16",-1.0,-1.0,-1.0,-1.0,0.0,0.0,0.0,0.0
11263.118215,0.0042857142857143215,0.0,0.0,0.0,[-1.],-1.0,-1.0,-1.0,-1,"4.262,0.108,-0.04,1003.,0.390,0.340,0.134,0.995,16",-1.0,-1.0,-1.0,-1.0,0.0,0.0,0.0,0.0
11570.044974,0.0042857142857143215,0.0,0.0,0.0,[-1.],-1.0,-1.0,-1.0,-1,"4.262,0.114,-0.04,1003.,0.390,0.340,0.134,0.995,16",-1.0,-1.0,-1.0,-1.0,0.0,0.0,0.0,0.0
11698.038252,0.0042857142857143215,0.0,0.0,0.0,[-1.],-1.0,-1.0,-1.0,-1,"4.262,0.115,-0.04,1003.,0.39,0.340,0.134,0.995,16",-1.0,-1.0,-1.0,-1.0,0.0,0.0,0.0,0.0
11818.800085,0.0042857142857143215,0.0,0.0,0.0,[-1.],-1.0,-1.0,-1.0,-1,"4.262,0.116,-0.04,1003.,0.390,0.34,0.134,0.995,16",-1.0,-1.0,-1.0,-1.0,0.0,0.0,0.0,0.0
11852.690289,0.0042857142857143215,0.0,0.0,0.0,[-1.],-1.0,-1.0,-1.0,-1,"4.262,0.117,-0.04,1003.,0.39,0.340,0.134,0.995,16",-1.0,-1.0,-1.0,-1.0,0.0,0.0,0.0,0.0
11933.682733,0.0042857142857143215,0.0,0.0,0.0,[-1.],-1.0,-1.0,-1.0,-1,"4.188,0.133,-0.04,1003.,0.39,0.340,0.134,0.995,16",-1.0,-1.0,-1.0,-1.0,0.0,0.0,0.0,0.0
11987.530419,0.0042857142857143215,0.0,0.0,0.0,[-1.],-1.0,-1.0,-1.0,-1,"4.262,0.133,-0.04,1003.,0.390,0.340,0.134,0.995,16",-1.0,-1.0,-1.0,-1.0,0.0,0.0,0.0,0.0
12019.395993,0.0042857142857143215,0.0,0.0,0.0,[-1.],-1.0,-1.0,-1.0,-1,"4.262,0.134,-0.04,1003.,0.390,0.340,0.134,0.995,16",-1.0,-1.0,-1.0,-1.0,0.0,0.0,0.0,0.0
12055.931067,0.0042857142857143215,0.0,0.0,0.0,[-1.],-1.0,-1.0,-1.0,-1,"4.262,0.134,-0.04,1003.,0.390,0.340,0.134,0.995,16",-1.0,-1.0,-1.0,-1.0,0.0,0.0,0.0,0.0
12129.326585,0.0042857142857143215,0.0,0.0,0.0,[-1.],-1.0,-1.0,-1.0,-1,"4.262,0.134,-0.04,1003.,0.390,0.340,0.134,0.995,16",-1.0,-1.0,-1.0,-1.0,0.0,0.0,0.0,0.0
12197.538919,0.0042857142857143215,0.0,0.0,0.0,[-1.],-1.0,-1.0,-1.0,-1,"4.262,0.135,-0.04,1003.,0.390,0.340,0.134,0.995,16",-1.0,-1.0,-1.0,-1.0,0.0,0.0,0.0,0.0
12279.764437,0.0042857142857143215,0.0,0.0,0.0,[-1.],-1.0,-1.0,-1.0,-1,"4.262,0.135,-0.04,1003.,0.39,0.340,0.134,0.995,16",-1.0,-1.0,-1.0,-1.0,0.0,0.0,0.0,0.0
12410.932326,0.0042857142857143215,0.0,0.0,0.0,[-1.],-1.0,-1.0,-1.0,-1,"4.262,0.135,-0.04,1003.,0.390,0.340,0.134,0.995,16",-1.0,-1.0,-1.0,-1.0,0.0,0.0,0.0,0.0
12495.72477,0.0042857142857143215,0.0,0.0,0.0,[-1.],-1.0,-1.0,-1.0,-1,"4.262,0.135,-0.04,1003.,0.390,0.340,0.134,0.995,16",-1.0,-1.0,-1.0,-1.0,0.0,0.0,0.0,0.0
12546.171548,0.0042857142857143215,0.0,0.0,0.0,[-1.],-1.0,-1.0,-1.0,-1,"4.188,0.135,-0.04,1003.,0.39,0.34,0.134,0.995,16",-1.0,-1.0,-1.0,-1.0,0.0,0.0,0.0,0.0
12686.850807,0.0042857142857143215,0.0,0.0,0.0,[-1.],-1.0,-1.0,-1.0,-1,"4.262,0.135,-0.04,1003.,0.390,0.340,0.134,0.995,16",-1.0,-1.0,-1.0,-1.0,0.0,0.0,0.0,0.0
12758.286418,0.0042857142857143215,0.0,0.0,0.0,[-1.],-1.0,-1.0,-1.0,-1,"4.262,0.136,-0.04,1003.,0.39,0.340,0.134,0.995,16",-1.0,-1.0,-1.0,-1.0,0.0,0.0,0.0,0.0
12854.678714,0.0042857142857143215,0.0,0.0,0.0,[-1.],-1.0,-1.0,-1.0,-1,"4.188,0.135,-0.04,1003.,0.390,0.340,0.134,0.995,16",-1.0,-1.0,-1.0,-1.0,0.0,0.0,0.0,0.0
12971.921011,0.0042857142857143215,0.0,0.0,0.0,[-1.],-1.0,-1.0,-1.0,-1,"4.262,0.135,-0.04,1003.,0.39,0.340,0.134,0.995,16",-1.0,-1.0,-1.0,-1.0,0.0,0.0,0.0,0.0
12987.015085,0.0042857142857143215,0.0,0.0,0.0,[-1.],-1.0,-1.0,-1.0,-1,"4.262,0.135,-0.04,1003.,0.39,0.340,0.134,0.995,16",-1.0,-1.0,-1.0,-1.0,0.0,0.0,0.0,0.0
14083.872066,0.0042857142857143215,0.0,0.0,0.0,[-1.],-1.0,-1.0,-1.0,-1,"4.262,0.145,-0.04,1003.,0.390,0.340,0.134,0.995,16",-1.0,-1.0,-1.0,-1.0,0.0,0.0,0.0,0.0
14181.598528,0.0042857142857143215,0.0,0.0,0.0,[-1.],-1.0,-1.0,-1.0,-1,"4.188,0.145,-0.04,1003.,0.390,0.340,0.134,0.995,16",-1.0,-1.0,-1.0,-1.0,0.0,0.0,0.0,0.0
14204.086399,0.0042857142857143215,0.0,0.0,0.0,[-1.],-1.0,-1.0,-1.0,-1,"4.188,0.145,-0.04,1003.,0.390,0.340,0.134,0.995,16",-1.0,-1.0,-1.0,-1.0,0.0,0.0,0.0,0.0
14237.890862,0.0042857142857143215,0.0,0.0,0.0,[-1.],-1.0,-1.0,-1.0,-1,"4.188,0.150,-0.04,1003.,0.390,0.340,0.134,0.995,16",-1.0,-1.0,-1.0,-1.0,0.0,0.0,0.0,0.0
14283.544232,0.0042857142857143215,0.0,0.0,0.0,[-1.],-1.0,-1.0,-1.0,-1,"4.188,0.172,-0.04,1003.,0.390,0.340,0.134,0.995,16",-1.0,-1.0,-1.0,-1.0,0.0,0.0,0.0,0.0
14297.305843,0.0042857142857143215,0.0,0.0,0.0,[-1.],-1.0,-1.0,-1.0,-1,"4.188,0.173,-0.04,1003.,0.390,0.34,0.134,0.995,16",-1.0,-1.0,-1.0,-1.0,0.0,0.0,0.0,0.0
14319.106547,0.0042857142857143215,0.0,0.0,0.0,[-1.],-1.0,-1.0,-1.0,-1,"4.262,0.174,-0.04,1003.,0.390,0.340,0.134,0.995,16",-1.0,-1.0,-1.0,-1.0,0.0,0.0,0.0,0.0
14360.241158,0.0042857142857143215,0.0,0.0,0.0,[-1.],-1.0,-1.0,-1.0,-1,"4.188,0.172,-0.04,1003.,0.39,0.34,0.134,0.995,16",-1.0,-1.0,-1.0,-1.0,0.0,0.0,0.0,0.0
14396.258121,0.0042857142857143215,0.0,0.0,0.0,[-1.],-1.0,-1.0,-1.0,-1,"4.262,0.173,-0.04,1003.,0.390,0.340,0.134,0.995,16",-1.0,-1.0,-1.0,-1.0,0.0,0.0,0.0,0.0
14415.546769,0.0042857142857143215,0.0,0.0,0.0,[-1.],-1.0,-1.0,-1.0,-1,"4.262,0.173,-0.04,1003.,0.390,0.340,0.134,0.995,16",-1.0,-1.0,-1.0,-1.0,0.0,0.0,0.0,0.0
14452.625325,0.0042857142857143215,0.0,0.0,0.0,[-1.],-1.0,-1.0,-1.0,-1,"4.262,0.173,-0.04,1003.,0.39,0.340,0.134,0.995,16",-1.0,-1.0,-1.0,-1.0,0.0,0.0,0.0,0.0
14492.869917,0.0042857142857143215,0.0,0.0,0.0,[-1.],-1.0,-1.0,-1.0,-1,"4.262,0.173,-0.04,1003.,0.39,0.340,0.134,0.995,16",-1.0,-1.0,-1.0,-1.0,0.0,0.0,0.0,0.0
14517.76438,0.0042857142857143215,0.0,0.0,0.0,[-1.],-1.0,-1.0,-1.0,-1,"4.262,0.170,-0.04,1003.,0.390,0.340,0.134,0.995,16",-1.0,-1.0,-1.0,-1.0,0.0,0.0,0.0,0.0
14538.887436,0.0042857142857143215,0.0,0.0,0.0,[-1.],-1.0,-1.0,-1.0,-1,"4.262,0.170,-0.04,1003.,0.390,0.340,0.134,0.995,16",-1.0,-1.0,-1.0,-1.0,0.0,0.0,0.0,0.0
14585.225713,0.0042857142857143215,0.0,0.0,0.0,[-1.],-1.0,-1.0,-1.0,-1,"4.188,0.163,-0.04,1003.,0.390,0.340,0.134,0.995,16",-1.0,-1.0,-1.0,-1.0,0.0,0.0,0.0,0.0
14631.738602,0.0042857142857143215,0.0,0.0,0.0,[-1.],-1.0,-1.0,-1.0,-1,"4.188,0.163,-0.04,1003.,0.39,0.34,0.134,0.995,16",-1.0,-1.0,-1.0,-1.0,0.0,0.0,0.0,0.0
14643.501936,0.0042857142857143215,0.0,0.0,0.0,[-1.],-1.0,-1.0,-1.0,-1,"4.636,0.163,-0.04,1003.,0.39,0.340,0.134,0.995,16",-1.0,-1.0,-1.0,-1.0,0.0,0.0,0.0,0.0
14705.895139,0.0042857142857143215,0.0,0.0,0.0,[-1.],-1.0,-1.0,-1.0,-1,"5.608,0.162,-0.04,1003.,0.390,0.340,0.134,0.995,16",-1.0,-1.0,-1.0,-1.0,0.0,0.0,0.0,0.0
14715.140713,0.0042857142857143215,0.0,0.0,0.0,[-1.],-1.0,-1.0,-1.0,-1,"4.262,0.160,-0.04,1003.,0.390,0.34,0.134,0.995,16",-1.0,-1.0,-1.0,-1.0,0.0,0.0,0.0,0.0
14810.604547,0.0042857142857143215,0.0,0.0,0.0,[-1.],-1.0,-1.0,-1.0,-1,"4.337,0.158,-0.04,1003.,0.39,0.340,0.134,0.995,16",-1.0,-1.0,-1.0,-1.0,0.0,0.0,0.0,0.0
14821.262639,0.0042857142857143215,0.0,0.0,0.0,[-1.],-1.0,-1.0,-1.0,-1,"4.337,0.158,-0.04,1003.,0.39,0.340,0.134,0.995,16",-1.0,-1.0,-1.0,-1.0,0.0,0.0,0.0,0.0
14860.875954,0.0042857142857143215,0.0,0.0,0.0,[-1.],-1.0,-1.0,-1.0,-1,"4.337,0.157,-0.04,1003.,0.390,0.340,0.134,0.995,16",-1.0,-1.0,-1.0,-1.0,0.0,0.0,0.0,0.0
14879.133547,0.0042857142857143215,0.0,0.0,0.0,[-1.],-1.0,-1.0,-1.0,-1,"4.412,0.158,-0.04,1003.,0.39,0.34,0.134,0.995,16",-1.0,-1.0,-1.0,-1.0,0.0,0.0,0.0,0.0
14918.700695,0.0042857142857143215,0.0,0.0,0.0,[-1.],-1.0,-1.0,-1.0,-1,"4.337,0.158,-0.04,1003.,0.39,0.340,0.134,0.995,16",-1.0,-1.0,-1.0,-1.0,0.0,0.0,0.0,0.0
14966.797639,0.0042857142857143215,0.0,0.0,0.0,[-1.],-1.0,-1.0,-1.0,-1,"4.412,0.159,-0.04,1003.,0.39,0.340,0.134,0.995,16",-1.0,-1.0,-1.0,-1.0,0.0,0.0,0.0,0.0
15007.556972,0.0042857142857143215,0.0,0.0,0.0,[-1.],-1.0,-1.0,-1.0,-1,"4.337,0.158,-0.04,1003.,0.390,0.340,0.134,0.995,16",-1.0,-1.0,-1.0,-1.0,0.0,0.0,0.0,0.0
15037.988046,0.0042857142857143215,0.0,0.0,0.0,[-1.],-1.0,-1.0,-1.0,-1,"4.412,0.158,-0.04,1003.,0.390,0.340,0.134,0.995,16",-1.0,-1.0,-1.0,-1.0,0.0,0.0,0.0,0.0
15061.629824,0.0042857142857143215,0.0,0.0,0.0,[-1.],-1.0,-1.0,-1.0,-1,"4.337,0.158,-0.04,1003.,0.390,0.340,0.134,0.995,16",-1.0,-1.0,-1.0,-1.0,0.0,0.0,0.0,0.0
15117.925639,0.0042857142857143215,0.0,0.0,0.0,[-1.],-1.0,-1.0,-1.0,-1,"4.412,0.158,-0.04,1003.,0.39,0.34,0.134,0.995,16",-1.0,-1.0,-1.0,-1.0,0.0,0.0,0.0,0.0
15138.693232,0.0042857142857143215,0.0,0.0,0.0,[-1.],-1.0,-1.0,-1.0,-1,"4.412,0.159,-0.04,1003.,0.391,0.340,0.134,0.995,16",-1.0,-1.0,-1.0,-1.0,0.0,0.0,0.0,0.0
15171.198287,0.0042857142857143215,0.0,0.0,0.0,[-1.],-1.0,-1.0,-1.0,-1,"4.412,0.159,-0.04,1003.,0.390,0.340,0.134,0.995,16",-1.0,-1.0,-1.0,-1.0,0.0,0.0,0.0,0.0
15189.826417,0.0042857142857143215,0.0,0.0,0.0,[-1.],-1.0,-1.0,-1.0,-1,"4.412,0.159,-0.04,1003.,0.390,0.34,0.134,0.995,16",-1.0,-1.0,-1.0,-1.0,0.0,0.0,0.0,0.0
15220.44375,0.0042857142857143215,0.0,0.0,0.0,[-1.],-1.0,-1.0,-1.0,-1,"4.412,0.158,-0.04,1003.,0.39,0.340,0.134,0.995,16",-1.0,-1.0,-1.0,-1.0,0.0,0.0,0.0,0.0
15249.493435,0.0042857142857143215,0.0,0.0,0.0,[-1.],-1.0,-1.0,-1.0,-1,"4.412,0.158,-0.04,1003.,0.39,0.340,0.134,0.995,16",-1.0,-1.0,-1.0,-1.0,0.0,0.0,0.0,0.0
15267.85238,0.0042857142857143215,0.0,0.0,0.0,[-1.],-1.0,-1.0,-1.0,-1,"4.412,0.158,-0.04,1003.,0.390,0.34,0.134,0.995,16",-1.0,-1.0,-1.0,-1.0,0.0,0.0,0.0,0.0
15293.258898,0.0042857142857143215,0.0,0.0,0.0,[-1.],-1.0,-1.0,-1.0,-1,"4.412,0.158,-0.04,1003.,0.390,0.34,0.134,0.995,16",-1.0,-1.0,-1.0,-1.0,0.0,0.0,0.0,0.0
15309.139583,0.0042857142857143215,0.0,0.0,0.0,[-1.],-1.0,-1.0,-1.0,-1,"4.412,0.158,-0.04,1003.,0.39,0.34,0.134,0.995,16",-1.0,-1.0,-1.0,-1.0,0.0,0.0,0.0,0.0
15325.233509,0.0042857142857143215,0.0,0.0,0.0,[-1.],-1.0,-1.0,-1.0,-1,"4.337,0.158,-0.04,1003.,0.39,0.340,0.134,0.995,16",-1.0,-1.0,-1.0,-1.0,0.0,0.0,0.0,0.0
15348.002398,0.0042857142857143215,0.0,0.0,0.0,[-1.],-1.0,-1.0,-1.0,-1,"4.337,0.158,-0.04,1003.,0.39,0.340,0.134,0.995,16",-1.0,-1.0,-1.0,-1.0,0.0,0.0,0.0,0.0
15372.335713,0.0042857142857143215,0.0,0.0,0.0,[-1.],-1.0,-1.0,-1.0,-1,"4.337,0.158,-0.04,1003.,0.39,0.340,0.134,0.995,16",-1.0,-1.0,-1.0,-1.0,0.0,0.0,0.0,0.0
15391.553583,0.0042857142857143215,0.0,0.0,0.0,[-1.],-1.0,-1.0,-1.0,-1,"4.337,0.157,-0.04,1003.,0.390,0.34,0.134,0.995,16",-1.0,-1.0,-1.0,-1.0,0.0,0.0,0.0,0.0
15413.211305,0.0042857142857143215,0.0,0.0,0.0,[-1.],-1.0,-1.0,-1.0,-1,"4.412,0.157,-0.04,1003.,0.390,0.340,0.134,0.995,16",-1.0,-1.0,-1.0,-1.0,0.0,0.0,0.0,0.0
15448.572213,0.0042857142857143215,0.0,0.0,0.0,[-1.],-1.0,-1.0,-1.0,-1,"4.412,0.157,-0.04,1003.,0.390,0.340,0.134,0.995,16",-1.0,-1.0,-1.0,-1.0,0.0,0.0,0.0,0.0
15463.112176,0.0042857142857143215,0.0,0.0,0.0,[-1.],-1.0,-1.0,-1.0,-1,"4.412,0.157,-0.04,1003.,0.39,0.340,0.134,0.995,16",-1.0,-1.0,-1.0,-1.0,0.0,0.0,0.0,0.0
15490.807602,0.0042857142857143215,0.0,0.0,0.0,[-1.],-1.0,-1.0,-1.0,-1,"4.412,0.157,-0.04,1003.,0.39,0.340,0.134,0.995,16",-1.0,-1.0,-1.0,-1.0,0.0,0.0,0.0,0.0
15510.665417,0.0042857142857143215,0.0,0.0,0.0,[-1.],-1.0,-1.0,-1.0,-1,"4.412,0.157,-0.04,1003.,0.390,0.340,0.134,0.995,16",-1.0,-1.0,-1.0,-1.0,0.0,0.0,0.0,0.0
15520.332917,0.0042857142857143215,0.0,0.0,0.0,[-1.],-1.0,-1.0,-1.0,-1,"4.412,0.157,-0.04,1003.,0.390,0.340,0.134,0.995,16",-1.0,-1.0,-1.0,-1.0,0.0,0.0,0.0,0.0
15544.510417,0.0042857142857143215,0.0,0.0,0.0,[-1.],-1.0,-1.0,-1.0,-1,"4.487,0.157,-0.04,1003.,0.39,0.340,0.134,0.995,16",-1.0,-1.0,-1.0,-1.0,0.0,0.0,0.0,0.0
15562.609065,0.0042857142857143215,0.0,0.0,0.0,[-1.],-1.0,-1.0,-1.0,-1,"4.487,0.157,-0.04,1003.,0.390,0.340,0.134,0.995,16",-1.0,-1.0,-1.0,-1.0,0.0,0.0,0.0,0.0
15586.693028,0.0042857142857143215,0.0,0.0,0.0,[-1.],-1.0,-1.0,-1.0,-1,"4.487,0.157,-0.04,1003.,0.390,0.340,0.134,0.995,16",-1.0,-1.0,-1.0,-1.0,0.0,0.0,0.0,0.0
15603.102268,0.0042857142857143215,0.0,0.0,0.0,[-1.],-1.0,-1.0,-1.0,-1,"4.487,0.157,-0.04,1003.,0.390,0.340,0.134,0.995,16",-1.0,-1.0,-1.0,-1.0,0.0,0.0,0.0,0.0
15621.109453,0.0042857142857143215,0.0,0.0,0.0,[-1.],-1.0,-1.0,-1.0,-1,"4.636,0.157,-0.04,1003.,0.390,0.340,0.134,0.995,16",-1.0,-1.0,-1.0,-1.0,0.0,0.0,0.0,0.0
15656.770583,0.0042857142857143215,0.0,0.0,0.0,[-1.],-1.0,-1.0,-1.0,-1,"4.861,0.157,-0.04,1003.,0.390,0.34,0.134,0.995,16",-1.0,-1.0,-1.0,-1.0,0.0,0.0,0.0,0.0
15669.51662,0.0042857142857143215,0.0,0.0,0.0,[-1.],-1.0,-1.0,-1.0,-1,"4.711,0.157,-0.04,1003.,0.390,0.340,0.134,0.995,16",-1.0,-1.0,-1.0,-1.0,0.0,0.0,0.0,0.0
15688.698453,0.0042857142857143215,0.0,0.0,0.0,[-1.],-1.0,-1.0,-1.0,-1,"4.711,0.157,-0.04,1003.,0.39,0.340,0.134,0.995,16",-1.0,-1.0,-1.0,-1.0,0.0,0.0,0.0,0.0
15725.957472,0.0042857142857143215,0.0,0.0,0.0,[-1.],-1.0,-1.0,-1.0,-1,"4.487,0.157,-0.04,1003.,0.390,0.340,0.134,0.995,16",-1.0,-1.0,-1.0,-1.0,0.0,0.0,0.0,0.0
15738.320157,0.0042857142857143215,0.0,0.0,0.0,[-1.],-1.0,-1.0,-1.0,-1,"4.487,0.157,-0.04,1003.,0.390,0.340,0.134,0.995,16",-1.0,-1.0,-1.0,-1.0,0.0,0.0,0.0,0.0
15781.794972,0.0042857142857143215,0.0,0.0,0.0,[-1.],-1.0,-1.0,-1.0,-1,"4.561,0.157,-0.04,1003.,0.390,0.340,0.134,0.995,16",-1.0,-1.0,-1.0,-1.0,0.0,0.0,0.0,0.0
15786.042379,0.0042857142857143215,0.0,0.0,0.0,[-1.],-1.0,-1.0,-1.0,-1,"4.487,0.157,-0.04,1003.,0.390,0.340,0.135,0.995,16",-1.0,-1.0,-1.0,-1.0,0.0,0.0,0.0,0.0
15821.002657,0.0042857142857143215,0.0,0.0,0.0,[-1.],-1.0,-1.0,-1.0,-1,"4.487,0.157,-0.04,1003.,0.390,0.340,0.135,0.995,16",-1.0,-1.0,-1.0,-1.0,0.0,0.0,0.0,0.0
15839.919509,0.0042857142857143215,0.0,0.0,0.0,[-1.],-1.0,-1.0,-1.0,-1,"4.561,0.157,-0.04,1003.,0.390,0.340,0.134,0.995,16",-1.0,-1.0,-1.0,-1.0,0.0,0.0,0.0,0.0
15866.085435,0.0042857142857143215,0.0,0.0,0.0,[-1.],-1.0,-1.0,-1.0,-1,"4.487,0.157,-0.04,1003.,0.390,0.34,0.134,0.995,16",-1.0,-1.0,-1.0,-1.0,0.0,0.0,0.0,0.0
15911.579176,0.0042857142857143215,0.0,0.0,0.0,[-1.],-1.0,-1.0,-1.0,-1,"5.010,0.157,-0.04,1003.,0.39,0.340,0.134,0.995,16",-1.0,-1.0,-1.0,-1.0,0.0,0.0,0.0,0.0
15918.704194,0.026428571428571482,0.0,0.0,0.0,[-1.],-1.0,-1.0,-1.0,-1,"6.132,0.157,-0.04,1023.,0.39,0.340,0.134,0.995,16",-1.0,-1.0,-1.0,-1.0,0.0,0.0,0.0,0.0
15950.697527,0.025,0.0,0.0,0.0,[-1.],-1.0,-1.0,-1.0,-1,"6.132,0.157,-0.04,1022.,0.390,0.340,0.134,0.995,16",-1.0,-1.0,-1.0,-1.0,0.0,0.0,0.0,0.0
15966.271157,0.021428571428571484,0.0,0.0,0.0,[-1.],-1.0,-1.0,-1.0,-1,"5.833,0.156,-0.04,1019.,0.390,0.34,0.134,0.995,16",-1.0,-1.0,-1.0,-1.0,0.0,0.0,0.0,0.0
15984.994305,0.02285714285714284,0.0,0.0,0.0,[-1.],-1.0,-1.0,-1.0,-1,"5.908,0.157,-0.04,1020.,0.39,0.340,0.134,0.995,16",-1.0,-1.0,-1.0,-1.0,0.0,0.0,0.0,0.0
16010.247916,0.02285714285714284,0.0,0.0,0.0,[-1.],-1.0,-1.0,-1.0,-1,"5.833,0.157,-0.04,1020.,0.390,0.340,0.134,0.995,16",-1.0,-1.0,-1.0,-1.0,0.0,0.0,0.0,0.0
16043.619509,0.02285714285714284,0.0,0.0,0.0,[-1.],-1.0,-1.0,-1.0,-1,"5.309,0.157,-0.04,1020.,0.390,0.340,0.134,0.995,16",-1.0,-1.0,-1.0,-1.0,0.0,0.0,0.0,0.0
16064.939675,0.022142857142857162,0.0,0.0,0.0,[-1.],-1.0,-1.0,-1.0,-1,"4.711,0.157,-0.04,1019.,0.390,0.340,0.133,0.995,16",-1.0,-1.0,-1.0,-1.0,0.0,0.0,0.0,0.0
16094.225601,0.02285714285714284,0.0,0.0,0.0,[-1.],-1.0,-1.0,-1.0,-1,"4.711,0.157,-0.04,1020.,0.390,0.34,0.134,0.995,16",-1.0,-1.0,-1.0,-1.0,0.0,0.0,0.0,0.0
16116.767842,0.02285714285714284,0.0,0.0,0.0,[-1.],-1.0,-1.0,-1.0,-1,"4.711,0.157,-0.04,1020.,0.39,0.340,0.134,0.995,16",-1.0,-1.0,-1.0,-1.0,0.0,0.0,0.0,0.0
16134.696638,0.02285714285714284,0.0,0.0,0.0,[-1.],-1.0,-1.0,-1.0,-1,"4.711,0.157,-0.04,1020.,0.39,0.340,0.134,0.995,16",-1.0,-1.0,-1.0,-1.0,0.0,0.0,0.0,0.0
16166.503287,0.02285714285714284,0.0,0.0,0.0,[-1.],-1.0,-1.0,-1.0,-1,"4.711,0.157,-0.04,1020.,0.39,0.340,0.134,0.995,16",-1.0,-1.0,-1.0,-1.0,0.0,0.0,0.0,0.0
16183.77662,0.022142857142857162,0.0,0.0,0.0,[-1.],-1.0,-1.0,-1.0,-1,"4.636,0.157,-0.04,1019.,0.390,0.340,0.134,0.995,16",-1.0,-1.0,-1.0,-1.0,0.0,0.0,0.0,0.0
16212.100379,0.02285714285714284,0.0,0.0,0.0,[-1.],-1.0,-1.0,-1.0,-1,"4.487,0.157,-0.04,1020.,0.390,0.340,0.134,0.995,16",-1.0,-1.0,-1.0,-1.0,0.0,0.0,0.0,0.0
16220.61899,0.007857142857142839,0.0,0.0,0.0,[-1.],-1.0,-1.0,-1.0,-1,"4.487,0.156,-0.04,1007.,0.39,0.340,0.134,0.995,16",-1.0,-1.0,-1.0,-1.0,0.0,0.0,0.0,0.0
16311.181472,0.0042857142857143215,0.0,0.0,0.0,[-1.],0.0,0.0,0.0,-1,"6.506,0.156,-0.04,1003.,0.39,0.340,0.134,0.995,16",0.0,0.0,0.0,0.0,0.0,0.0,0.0,0.0
16423.201583,0.0042857142857143215,-0.04000266714678099,0.0,-0.0,[-1.],-0.02,-0.02,-1.02,-1,"9.946,0.157,-0.04,1003.,0.390,0.340,0.134,0.995,16",1019.0,1000.0,1000.0,1021.0,0.0,0.0,0.0,0.0
16476.417768,0.0042857142857143215,-0.04000266714678099,0.0,-0.0,[-1.],-0.02,-0.02,-1.02,-1,"5.683,0.156,-0.04,1003.,0.390,0.34,0.134,0.995,16",1019.0,1000.0,1000.0,1021.0,0.0,0.0,0.0,0.0
16514.542675,0.0042857142857143215,-0.04000266714678099,0.0,-0.0,[-1.],-0.02,-0.02,-1.02,-1,"4.412,0.157,-0.04,1003.,0.390,0.340,0.134,0.995,16",1019.0,1000.0,1000.0,1021.0,0.0,0.0,0.0,0.0
16610.133434,0.0042857142857143215,-0.04000266714678099,0.0,-0.0,[-1.],-0.02,-0.02,-1.02,-1,"4.487,0.156,-0.04,1003.,0.390,0.340,0.134,0.995,16",1019.0,1000.0,1000.0,1021.0,0.0,0.0,0.0,0.0
16746.466175,0.03642857142857136,-0.04000266714678099,0.0,-0.0,[-1.],-0.02,-0.02,-1.02,-1,"4.636,0.156,-0.04,1032.,0.390,0.34,0.134,0.995,16",1018.0,1000.0,1001.0,1022.0,0.0,0.0,0.0,0.0
16849.983305,0.05214285714285703,-0.04000266714678099,0.0,-0.0,[-1.],-0.01,-0.02,-1.02,-1,"4.561,0.157,-0.04,1046.,0.39,0.340,0.134,0.995,16",1004.0,1000.0,1013.0,1054.0,0.0,0.0,0.0,0.0
16950.539545,0.052857142857142964,-0.04000266714678099,0.0,-0.0,[-1.],-0.02,-0.02,-1.02,-1,"4.487,0.156,-0.04,1047.,0.390,0.340,0.134,0.995,16",1017.0,1000.0,1000.0,1068.0,0.0,0.0,0.0,0.0
17038.882101,0.08071428571428568,-0.04000266714678099,0.0,0.0,[-1.],-0.02,0.0,-1.01,-1,"4.487,0.155,-0.04,1072.,0.390,0.340,0.134,0.995,16",1000.0,1000.0,1023.0,1043.0,0.0,0.0,0.0,0.0
17112.172008,0.105,-0.04000266714678099,0.0,0.0,[-1.],0.02,0.0,-1.03,-1,"4.487,0.155,-0.04,1094.,0.390,0.34,0.134,0.995,16",1006.0,1000.0,1012.0,1055.0,0.0,0.0,0.0,0.0
17222.55599,0.10642857142857136,-0.04000266714678099,0.0,0.0,[-1.],-0.02,-0.02,-1.02,-1,"4.487,0.155,-0.04,1095.,0.390,0.340,0.134,0.995,16",1000.0,1000.0,1029.0,1039.0,0.0,0.0,0.0,0.0
17361.187323,0.10642857142857136,-0.04000266714678099,0.0,0.0,[-1.],-0.02,-0.02,-1.02,-1,"4.636,0.156,-0.04,1095.,0.39,0.340,0.134,0.995,16",1023.0,1000.0,1053.0,1076.0,0.0,0.0,0.0,0.0
17414.373119,0.10714285714285704,-0.06000900364695387,0.0,0.0,[-1.],-0.03,0.02,-1.0,-1,"4.412,0.155,-0.04,1096.,0.390,0.340,0.134,0.995,16",1038.0,1000.0,1066.0,1089.0,0.0,0.0,0.0,0.0
17508.506601,0.16142857142857137,-0.06000900364695387,0.0,0.0,[-1.],-0.08,-0.04,-1.0,-1,"4.935,0.156,-0.04,1145.,0.390,0.340,0.134,0.995,16",1027.0,1005.0,1076.0,1078.0,0.0,0.0,0.0,0.0
17625.490045,0.18571428571428567,-0.06000900364695387,0.0,0.0,[-1.],0.07,0.05,-1.04,-1,"4.861,0.155,-0.04,1167.,0.39,0.34,0.134,0.995,16",1072.0,1009.0,1087.0,1117.0,0.0,0.0,0.0,0.0
17706.0066,0.18571428571428567,-0.06000900364695387,0.0,0.0,[-1.],0.08,0.14,-1.04,-1,"4.636,0.156,-0.04,1167.,0.39,0.340,0.134,0.995,16",1105.0,1016.0,1102.0,1151.0,0.0,0.0,0.0,0.0
17831.234193,0.18714285714285703,-0.06000900364695387,0.0,0.0,[-1.],0.02,0.04,-1.04,-1,"5.908,0.156,-0.04,1168.,0.39,0.340,0.134,0.995,16",1095.0,1032.0,1112.0,1139.0,0.0,0.0,0.0,0.0
17888.744563,0.19,-0.06000900364695387,0.0,0.0,[-1.],0.29,0.03,-0.95,-1,"8.002,0.156,-0.04,1171.,0.39,0.340,0.134,0.995,16",1077.0,1032.0,1126.0,1143.0,0.0,0.0,0.0,0.0
17955.255989,0.13642857142857134,-0.06000900364695387,0.0,0.0,[-1.],-0.01,0.03,-1.0,-1,"9.348,0.156,-0.04,1122.,0.39,0.34,0.134,0.995,16",1104.0,1031.0,1105.0,1142.0,0.0,0.0,0.0,0.0
18023.237637,0.08428571428571432,-0.06000900364695387,0.0,0.0,[-1.],-0.0,0.0,-1.07,-1,"10.17,0.156,-0.04,1075.,0.390,0.34,0.134,0.995,16",1161.0,1064.0,1147.0,1205.0,0.0,0.0,0.0,0.0
18139.015711,0.026428571428571482,-0.06000900364695387,0.0,0.0,[-1.],-0.16,0.06,-0.99,-1,"10.84,0.156,-0.04,1023.,0.390,0.34,0.134,0.995,16",1143.0,1126.0,1204.0,1192.0,0.0,0.0,0.0,0.0
18276.107563,0.0042857142857143215,-0.06000900364695387,0.0,0.0,[-1.],-0.1,0.24,-1.11,-1,"10.76,0.157,-0.04,1003.,0.390,0.34,0.134,0.995,16",1168.0,1090.0,1189.0,1220.0,0.0,0.0,0.0,0.0
18426.915322,0.0042857142857143215,-0.06000900364695387,0.0,0.0,[-1.],0.15,-0.01,-1.02,-1,"11.21,0.156,-0.04,1003.,0.390,0.340,0.134,0.995,16",1172.0,1097.0,1175.0,1226.0,0.0,0.0,0.0,0.0
18573.485507,0.0042857142857143215,-0.06000900364695387,0.0,0.0,[-1.],0.16,-0.05,-0.93,-1,"4.188,0.176,-0.04,1003.,0.390,0.340,0.134,0.995,16",1152.0,1117.0,1196.0,1217.0,0.0,0.0,0.0,0.0
18656.267322,0.0042857142857143215,-0.06000900364695387,0.0,0.0,[-1.],-0.02,-0.04,-1.01,-1,"4.262,0.179,-0.04,1003.,0.390,0.340,0.134,0.995,16",1144.0,1039.0,1112.0,1191.0,0.0,0.0,0.0,0.0
18759.935637,0.0042857142857143215,-0.06000900364695387,0.0,0.0,[-1.],0.05,0.16,-1.0,-1,"4.262,0.208,-0.04,1003.,0.390,0.340,0.134,0.995,16",1077.0,1000.0,1084.0,1137.0,0.0,0.0,0.0,0.0
18835.540674,0.0042857142857143215,-0.06000900364695387,0.0,0.0,[-1.],0.06,0.06,-0.93,-1,"4.262,0.249,-0.04,1003.,0.390,0.340,0.134,0.995,16",1024.0,1000.0,1034.0,1080.0,0.0,0.0,0.0,0.0
18932.631359,0.0042857142857143215,-0.08002134870797785,0.0,0.0,[-1.],0.03,0.08,-1.04,-1,"4.337,0.252,-0.04,1003.,0.390,0.340,0.134,0.995,16",1024.0,1000.0,1000.0,1078.0,0.0,0.0,0.0,0.0
19003.680285,0.0042857142857143215,-0.08002134870797785,0.0,0.0,[-1.],-0.05,-0.06,-0.97,-1,"4.262,0.258,-0.04,1003.,0.390,0.340,0.134,0.995,16",1021.0,1000.0,1000.0,1073.0,0.0,0.0,0.0,0.0
19057.9926,0.0042857142857143215,-0.08002134870797785,0.0,0.0,[-1.],-0.07,0.04,-0.98,-1,"4.188,0.281,-0.04,1003.,0.39,0.34,0.134,0.995,16",1000.0,1000.0,1029.0,1050.0,0.0,0.0,0.0,0.0
19192.537877,0.0042857142857143215,-0.08002134870797785,0.0,0.0,[-1.],0.0,-0.03,-1.02,-1,"4.262,0.304,-0.04,1003.,0.390,0.34,0.134,0.995,16",1000.0,1000.0,1031.0,1052.0,0.0,0.0,0.0,0.0
19342.464692,0.0042857142857143215,-0.08002134870797785,0.0,0.0,[-1.],-0.03,-0.04,-0.99,-1,"4.262,0.305,-0.05,1003.,0.390,0.340,0.134,0.995,16",1000.0,1000.0,1038.0,1054.0,0.0,0.0,0.0,0.0
19442.974248,0.0042857142857143215,-0.08002134870797785,0.0,0.0,[-1.],-0.02,-0.01,-1.0,-1,"4.262,0.305,-0.05,1003.,0.390,0.340,0.134,0.995,16",1000.0,1000.0,1038.0,1067.0,0.0,0.0,0.0,0.0
19564.129192,0.0042857142857143215,-0.08002134870797785,0.0,0.0,[-1.],-0.02,-0.01,-1.0,-1,"4.262,0.304,-0.05,1003.,0.390,0.340,0.134,0.995,16",1000.0,1000.0,1039.0,1068.0,0.0,0.0,0.0,0.0
19675.366451,0.0042857142857143215,-0.08002134870797785,0.0,0.0,[-1.],-0.04,0.02,-1.02,-1,"4.262,0.305,-0.04,1003.,0.39,0.340,0.134,0.995,16",1000.0,1000.0,1045.0,1065.0,0.0,0.0,0.0,0.0
19719.28171,0.0042857142857143215,-0.08003334780531549,-0.019984322942669053,0.0008001598612373593,[-1.],-0.02,-0.04,-1.01,-1,"4.262,0.305,-0.04,1003.,0.390,0.340,0.134,0.995,16",1000.0,1000.0,1048.0,1073.0,0.0,0.0,0.0,0.0
19771.17684,0.0042857142857143215,-0.08003334780531549,-0.019984322942669053,0.0008001598612373593,[-1.],0.02,0.0,-1.04,-1,"4.337,0.305,-0.04,1003.,0.39,0.340,0.134,0.995,16",1000.0,1000.0,1041.0,1090.0,0.0,0.0,0.0,0.0
19828.306636,0.0042857142857143215,-0.08003334780531549,-0.019984322942669053,0.0008001598612373593,[-1.],-0.02,-0.01,-0.99,-1,"4.262,0.299,-0.05,1003.,0.39,0.340,0.134,0.995,16",1000.0,1000.0,1056.0,1074.0,0.0,0.0,0.0,0.0
19886.129451,0.0042857142857143215,-0.08003334780531549,-0.019984322942669053,0.0008001598612373593,[-1.],0.02,0.01,-1.03,-1,"4.337,0.294,-0.05,1003.,0.390,0.340,0.134,0.995,16",1000.0,1000.0,1051.0,1084.0,0.0,0.0,0.0,0.0
20001.029377,0.0042857142857143215,-0.08003334780531549,-0.019984322942669053,0.0008001598612373593,[-1.],0.0,-0.04,-1.05,-1,"4.337,0.291,-0.05,1003.,0.390,0.340,0.134,0.995,16",1000.0,1000.0,1056.0,1078.0,0.0,0.0,0.0,0.0
20093.402599,0.0042857142857143215,-0.08003334780531549,-0.019984322942669053,0.0008001598612373593,[-1.],-0.1,-0.0,-0.98,-1,"4.262,0.290,-0.05,1003.,0.39,0.340,0.134,0.995,16",1000.0,1000.0,1060.0,1071.0,0.0,0.0,0.0,0.0
20132.97471,0.0042857142857143215,-0.08003334780531549,-0.019984322942669053,0.0008001598612373593,[-1.],-0.01,0.02,-0.97,-1,"4.262,0.291,-0.05,1003.,0.39,0.340,0.134,0.995,16",1000.0,1000.0,1049.0,1081.0,0.0,0.0,0.0,0.0
20192.204617,0.0042857142857143215,-0.08003334780531549,-0.019984322942669053,0.0008001598612373593,[-1.],-0.03,-0.05,-1.04,-1,"4.262,0.290,-0.05,1003.,0.39,0.340,0.134,0.995,16",1000.0,1000.0,1053.0,1082.0,0.0,0.0,0.0,0.0
20243.94071,0.0042857142857143215,-0.08003334780531549,-0.019984322942669053,0.0008001598612373593,[-1.],0.04,0.03,-1.05,-1,"4.262,0.290,-0.05,1003.,0.390,0.340,0.134,0.995,16",1000.0,1000.0,1047.0,1086.0,0.0,0.0,0.0,0.0
20355.315932,0.0042857142857143215,-0.08003334780531549,-0.019984322942669053,0.0008001598612373593,[-1.],-0.02,0.06,-0.99,-1,"4.337,0.290,-0.04,1003.,0.390,0.340,0.134,0.995,16",1000.0,1000.0,1053.0,1073.0,0.0,0.0,0.0,0.0
20379.179877,0.0042857142857143215,-0.08003334780531549,-0.019984322942669053,0.0008001598612373593,[-1.],-0.05,0.01,-1.0,-1,"4.337,0.290,-0.04,1003.,0.39,0.340,0.134,0.995,16",1000.0,1000.0,1047.0,1075.0,0.0,0.0,0.0,0.0
20413.192247,0.0042857142857143215,-0.08003334780531549,-0.019984322942669053,0.0008001598612373593,[-1.],-0.09,0.05,-1.0,-1,"4.337,0.290,-0.04,1003.,0.39,0.340,0.134,0.995,16",1000.0,1000.0,1059.0,1066.0,0.0,0.0,0.0,0.0
20456.415099,0.0042857142857143215,-0.08003334780531549,-0.019984322942669053,0.0008001598612373593,[-1.],-0.01,-0.08,-1.07,-1,"4.337,0.290,-0.04,1003.,0.39,0.340,0.134,0.995,16",1000.0,1000.0,1057.0,1073.0,0.0,0.0,0.0,0.0
20495.421765,0.0042857142857143215,-0.08003334780531549,-0.019984322942669053,0.0008001598612373593,[-1.],-0.06,-0.02,-1.04,-1,"4.262,0.289,-0.05,1003.,0.390,0.340,0.134,0.995,16",1000.0,1000.0,1054.0,1073.0,0.0,0.0,0.0,0.0
20556.999932,0.0042857142857143215,-0.08003334780531549,-0.019984322942669053,0.0008001598612373593,[-1.],-0.01,-0.07,-1.01,-1,"4.337,0.289,-0.05,1003.,0.390,0.340,0.134,0.995,16",1000.0,1000.0,1049.0,1077.0,0.0,0.0,0.0,0.0
20673.236043,0.0042857142857143215,-0.08003334780531549,-0.019984322942669053,0.0008001598612373593,[-1.],0.04,0.02,-1.0,-1,"4.412,0.290,-0.04,1003.,0.390,0.340,0.134,0.995,16",1000.0,1000.0,1041.0,1083.0,0.0,0.0,0.0,0.0
20765.716339,0.0042857142857143215,-0.08003334780531549,-0.019984322942669053,0.0008001598612373593,[-1.],0.0,-0.0,-1.0,-1,"4.337,0.289,-0.05,1003.,0.390,0.340,0.134,0.995,16",1000.0,1000.0,1038.0,1088.0,0.0,0.0,0.0,0.0
20853.058358,0.0042857142857143215,-0.08003334780531549,-0.019984322942669053,0.0008001598612373593,[-1.],-0.02,-0.05,-1.01,-1,"4.412,0.289,-0.05,1003.,0.39,0.340,0.134,0.995,16",1000.0,1000.0,1056.0,1073.0,0.0,0.0,0.0,0.0
20907.91608,0.0042857142857143215,-0.08003334780531549,-0.019984322942669053,0.0008001598612373593,[-1.],-0.06,0.03,-1.02,-1,"4.337,0.289,-0.05,1003.,0.390,0.340,0.134,0.995,16",1000.0,1000.0,1058.0,1068.0,0.0,0.0,0.0,0.0
21002.237747,0.0042857142857143215,-0.08003334780531549,-0.019984322942669053,0.0008001598612373593,[-1.],-0.01,0.04,-0.98,-1,"4.337,0.289,-0.05,1003.,0.390,0.340,0.134,0.995,16",1000.0,1000.0,1049.0,1076.0,0.0,0.0,0.0,0.0
21024.548987,0.0042857142857143215,-0.08003334780531549,-0.019984322942669053,0.0008001598612373593,[-1.],0.0,0.04,-1.0,-1,"4.337,0.289,-0.05,1003.,0.390,0.340,0.134,0.995,16",1000.0,1000.0,1042.0,1083.0,0.0,0.0,0.0,0.0
21098.487839,0.0042857142857143215,-0.08003334780531549,-0.019984322942669053,0.0008001598612373593,[-1.],-0.13,-0.12,-0.97,-1,"4.337,0.289,-0.05,1003.,0.390,0.340,0.134,0.995,16",1000.0,1000.0,1050.0,1075.0,0.0,0.0,0.0,0.0
21143.948098,0.0042857142857143215,-0.08003334780531549,-0.019984322942669053,0.0008001598612373593,[-1.],-0.01,-0.0,-1.05,-1,"4.412,0.289,-0.05,1003.,0.390,0.340,0.134,0.995,16",1000.0,1000.0,1054.0,1072.0,0.0,0.0,0.0,0.0
21262.181469,0.0042857142857143215,-0.10005671023243679,-0.019975311453208633,0.0010001997064747884,[-1.],-0.05,0.01,-0.99,-1,"4.337,0.289,-0.05,1003.,0.39,0.340,0.134,0.995,16",1000.0,1000.0,1045.0,1076.0,0.0,0.0,0.0,0.0
21386.121728,0.0042857142857143215,-0.10005671023243679,-0.019975311453208633,0.0010001997064747884,[-1.],0.02,-0.05,-1.08,-1,"4.412,0.289,-0.05,1003.,0.39,0.340,0.134,0.995,16",1000.0,1000.0,1048.0,1082.0,0.0,0.0,0.0,0.0
21441.336876,0.0042857142857143215,-0.10005671023243679,-0.019975311453208633,0.0010001997064747884,[-1.],-0.06,-0.03,-1.02,-1,"4.412,0.289,-0.04,1003.,0.390,0.340,0.134,0.995,16",1000.0,1000.0,1059.0,1068.0,0.0,0.0,0.0,0.0
21471.454931,0.0042857142857143215,-0.10005671023243679,-0.019975311453208633,0.0010001997064747884,[-1.],-0.06,-0.07,-1.04,-1,"4.337,0.289,-0.05,1003.,0.39,0.340,0.134,0.995,16",1000.0,1000.0,1053.0,1077.0,0.0,0.0,0.0,0.0
21569.978506,0.0042857142857143215,-0.10005671023243679,-0.019975311453208633,0.0010001997064747884,[-1.],-0.0,-0.02,-1.04,-1,"4.337,0.287,-0.04,1003.,0.390,0.340,0.134,0.995,16",1000.0,1000.0,1055.0,1072.0,0.0,0.0,0.0,0.0
21676.12058,0.0042857142857143215,-0.10005671023243679,-0.019975311453208633,0.0010001997064747884,[-1.],-0.04,-0.06,-1.03,-1,"4.337,0.286,-0.04,1003.,0.390,0.340,0.134,0.995,16",1000.0,1000.0,1048.0,1081.0,0.0,0.0,0.0,0.0
21773.444079,0.0042857142857143215,-0.10005671023243679,-0.019975311453208633,0.0010001997064747884,[-1.],-0.03,0.04,-0.97,-1,"4.337,0.284,-0.04,1003.,0.390,0.340,0.134,0.995,16",1000.0,1000.0,1057.0,1070.0,0.0,0.0,0.0,0.0
21833.105172,0.0042857142857143215,-0.10005671023243679,-0.019975311453208633,0.0010001997064747884,[-1.],0.03,0.0,-1.05,-1,"4.337,0.284,-0.05,1003.,0.390,0.340,0.134,0.995,16",1000.0,1000.0,1049.0,1078.0,0.0,0.0,0.0,0.0
21905.234968,0.0042857142857143215,-0.10005671023243679,-0.019975311453208633,0.0010001997064747884,[-1.],0.03,-0.1,-1.06,-1,"4.412,0.284,-0.04,1003.,0.39,0.340,0.134,0.995,16",1000.0,1000.0,1054.0,1077.0,0.0,0.0,0.0,0.0
21971.697653,0.0042857142857143215,-0.10005671023243679,-0.019975311453208633,0.0010001997064747884,[-1.],-0.03,-0.06,-1.0,-1,"3.066,0.284,-0.04,1003.,0.390,0.340,0.134,0.995,16",1000.0,1000.0,1053.0,1073.0,0.0,0.0,0.0,0.0
22015.837302,0.0042857142857143215,-0.10005671023243679,-0.019975311453208633,0.0010001997064747884,[-1.],-0.04,0.03,-1.04,-1,"2.916,0.284,-0.04,1003.,0.390,0.34,0.134,0.995,16",1000.0,1000.0,1051.0,1073.0,0.0,0.0,0.0,0.0
22049.209839,0.0042857142857143215,-0.10005671023243679,-0.019975311453208633,0.0010001997064747884,[-1.],-0.08,0.06,-0.95,-1,"3.066,0.284,-0.04,1003.,0.39,0.340,0.134,0.995,16",1000.0,1000.0,1057.0,1067.0,0.0,0.0,0.0,0.0
22142.574394,0.0042857142857143215,-0.10005671023243679,-0.019975311453208633,0.0010001997064747884,[-1.],0.02,-0.0,-1.04,-1,"3.215,0.284,-0.04,1003.,0.390,0.340,0.134,0.995,16",1000.0,1000.0,1052.0,1074.0,0.0,0.0,0.0,0.0
22197.288616,0.0042857142857143215,-0.10005671023243679,-0.019975311453208633,0.0010001997064747884,[-1.],-0.11,0.02,-1.0,-1,"3.141,0.284,-0.04,1003.,0.390,0.340,0.134,0.995,16",1000.0,1000.0,1055.0,1068.0,0.0,0.0,0.0,0.0
22281.942098,0.0042857142857143215,-0.10005671023243679,-0.019975311453208633,0.0010001997064747884,[-1.],-0.11,-0.03,-0.99,-1,"4.038,0.284,-0.04,1003.,0.39,0.340,0.134,0.995,16",1000.0,1000.0,1058.0,1067.0,0.0,0.0,0.0,0.0
22381.523672,0.0042857142857143215,-0.10005671023243679,-0.019975311453208633,0.0010001997064747884,[-1.],-0.01,0.02,-0.98,-1,"4.262,0.275,-0.04,1003.,0.39,0.340,0.134,0.995,16",1000.0,1000.0,1043.0,1078.0,0.0,0.0,0.0,0.0
22476.880338,0.0042857142857143215,-0.10005671023243679,-0.019975311453208633,0.0010001997064747884,[-1.],0.01,-0.02,-1.02,-1,"4.188,0.276,-0.04,1003.,0.390,0.340,0.134,0.995,17",1000.0,1000.0,1044.0,1079.0,0.0,0.0,0.0,0.0
22575.126931,0.0042857142857143215,-0.10005671023243679,-0.019975311453208633,0.0010001997064747884,[-1.],-0.02,-0.03,-1.04,-1,"4.262,0.277,-0.04,1003.,0.390,0.340,0.134,0.995,17",1000.0,1000.0,1058.0,1071.0,0.0,0.0,0.0,0.0
22614.273542,0.0042857142857143215,-0.10005671023243679,-0.019975311453208633,0.0010001997064747884,[-1.],0.04,-0.0,-1.05,-1,"4.262,0.277,-0.04,1003.,0.39,0.340,0.134,0.995,17",1000.0,1000.0,1061.0,1068.0,0.0,0.0,0.0,0.0
22684.914375,0.0042857142857143215,-0.10005671023243679,-0.019975311453208633,0.0010001997064747884,[-1.],-0.03,-0.08,-1.03,-1,"4.262,0.280,-0.04,1003.,0.39,0.34,0.134,0.995,17",1000.0,1000.0,1053.0,1073.0,0.0,0.0,0.0,0.0
22768.924431,0.0042857142857143215,-0.10005671023243679,-0.019975311453208633,0.0010001997064747884,[-1.],-0.06,-0.03,-1.01,-1,"4.188,0.284,-0.04,1003.,0.39,0.340,0.134,0.995,17",1000.0,1000.0,1048.0,1076.0,0.0,0.0,0.0,0.0
22856.578875,0.0042857142857143215,-0.10005671023243679,-0.019975311453208633,0.0010001997064747884,[-1.],-0.07,-0.02,-1.02,-1,"4.188,0.285,-0.04,1003.,0.390,0.340,0.134,0.995,17",1000.0,1000.0,1053.0,1071.0,0.0,0.0,0.0,0.0
22946.186394,0.0042857142857143215,-0.10005671023243679,-0.019975311453208633,0.0010001997064747884,[-1.],-0.07,-0.02,-1.02,-1,"4.188,0.284,-0.04,1003.,0.390,0.340,0.134,0.995,17",1000.0,1000.0,1053.0,1071.0,0.0,0.0,0.0,0.0
23091.728042,0.0042857142857143215,-0.10005671023243679,-0.019975311453208633,0.0010001997064747884,[-1.],-0.07,-0.02,-1.02,-1,"4.188,0.259,-0.04,1003.,0.390,0.340,0.134,0.995,17",1000.0,1000.0,1053.0,1071.0,0.0,0.0,0.0,0.0
23133.749838,0.0042857142857143215,-0.10005671023243679,-0.019975311453208633,0.0010001997064747884,[-1.],-0.07,-0.02,-1.02,-1,"4.188,0.255,-0.04,1003.,0.390,0.340,0.134,0.995,17",1000.0,1000.0,1053.0,1071.0,0.0,0.0,0.0,0.0
23209.236449,0.0042857142857143215,-0.10005671023243679,-0.019975311453208633,0.0010001997064747884,[-1.],-0.07,-0.02,-1.02,-1,"4.188,0.255,-0.04,1003.,0.390,0.340,0.134,0.995,17",1000.0,1000.0,1053.0,1071.0,0.0,0.0,0.0,0.0
23302.238227,0.0042857142857143215,-0.10005671023243679,-0.019975311453208633,0.0010001997064747884,[-1.],-0.07,-0.02,-1.02,-1,"4.188,0.255,-0.04,1003.,0.390,0.340,0.134,0.995,17",1000.0,1000.0,1053.0,1071.0,0.0,0.0,0.0,0.0
23341.197875,0.0042857142857143215,-0.10005671023243679,-0.019975311453208633,0.0010001997064747884,[-1.],-0.07,-0.02,-1.02,-1,"4.262,0.256,-0.04,1003.,0.390,0.340,0.134,0.995,17",1000.0,1000.0,1053.0,1071.0,0.0,0.0,0.0,0.0
23437.024764,0.0042857142857143215,-0.10005671023243679,-0.019975311453208633,0.0010001997064747884,[-1.],-0.07,-0.02,-1.02,-1,"4.188,0.255,-0.04,1003.,0.39,0.34,0.134,0.995,17",1000.0,1000.0,1053.0,1071.0,0.0,0.0,0.0,0.0
23563.921875,0.0042857142857143215,-0.10005671023243679,-0.019975311453208633,0.0010001997064747884,[-1.],-0.07,-0.02,-1.02,-1,"4.188,0.255,-0.04,1003.,0.390,0.340,0.134,0.995,17",1000.0,1000.0,1053.0,1071.0,0.0,0.0,0.0,0.0
23626.354208,0.0042857142857143215,-0.10005671023243679,-0.019975311453208633,0.0010001997064747884,[-1.],-0.07,-0.02,-1.02,-1,"4.113,0.255,-0.04,1003.,0.390,0.340,0.134,0.995,17",1000.0,1000.0,1053.0,1071.0,0.0,0.0,0.0,0.0
23690.133097,0.0042857142857143215,-0.10005671023243679,-0.019975311453208633,0.0010001997064747884,[-1.],-0.07,-0.02,-1.02,-1,"4.188,0.255,-0.04,1003.,0.39,0.340,0.134,0.995,17",1000.0,1000.0,1053.0,1071.0,0.0,0.0,0.0,0.0
23788.080875,0.0042857142857143215,-0.10005671023243679,-0.019975311453208633,0.0010001997064747884,[-1.],-0.07,-0.02,-1.02,-1,"4.188,0.255,-0.04,1003.,0.390,0.340,0.134,0.995,17",1000.0,1000.0,1053.0,1071.0,0.0,0.0,0.0,0.0
23853.432578,0.0042857142857143215,-0.10005671023243679,-0.019975311453208633,0.0010001997064747884,[-1.],-0.07,-0.02,-1.02,-1,"4.188,0.255,-0.04,1003.,0.390,0.340,0.134,0.995,17",1000.0,1000.0,1053.0,1071.0,0.0,0.0,0.0,0.0
23920.134523,0.0042857142857143215,-0.10005671023243679,-0.019975311453208633,0.0010001997064747884,[-1.],-0.07,-0.02,-1.02,-1,"4.188,0.255,-0.04,1003.,0.390,0.340,0.134,0.995,17",1000.0,1000.0,1053.0,1071.0,0.0,0.0,0.0,0.0
23954.133115,0.0042857142857143215,-0.10005671023243679,-0.019975311453208633,0.0010001997064747884,[-1.],-0.07,-0.02,-1.02,-1,"4.188,0.256,-0.04,1003.,0.39,0.34,0.134,0.995,17",1000.0,1000.0,1053.0,1071.0,0.0,0.0,0.0,0.0
24001.370319,0.0042857142857143215,-0.10005671023243679,-0.019975311453208633,0.0010001997064747884,[-1.],-0.07,-0.02,-1.02,-1,"4.262,0.255,-0.04,1003.,0.390,0.340,0.134,0.995,17",1000.0,1000.0,1053.0,1071.0,0.0,0.0,0.0,0.0
24040.787634,0.0042857142857143215,-0.10005671023243679,-0.019975311453208633,0.0010001997064747884,[-1.],-0.07,-0.02,-1.02,-1,"4.188,0.256,-0.04,1003.,0.39,0.340,0.134,0.995,17",1000.0,1000.0,1053.0,1071.0,0.0,0.0,0.0,0.0
24110.502782,0.0042857142857143215,-0.10005671023243679,-0.019975311453208633,0.0010001997064747884,[-1.],-0.07,-0.02,-1.02,-1,"4.188,0.252,-0.04,1003.,0.390,0.340,0.134,0.995,17",1000.0,1000.0,1053.0,1071.0,0.0,0.0,0.0,0.0
24182.692448,0.0042857142857143215,-0.10005671023243679,-0.019975311453208633,0.0010001997064747884,[-1.],-0.07,-0.02,-1.02,-1,"4.188,0.219,-0.04,1003.,0.390,0.340,0.134,0.995,17",1000.0,1000.0,1053.0,1071.0,0.0,0.0,0.0,0.0
24276.086171,0.0042857142857143215,-0.10005671023243679,-0.019975311453208633,0.0010001997064747884,[-1.],-0.07,-0.02,-1.02,-1,"4.188,0.218,-0.04,1003.,0.39,0.340,0.134,0.995,17",1000.0,1000.0,1053.0,1071.0,0.0,0.0,0.0,0.0
24342.446522,0.0042857142857143215,-0.10005671023243679,-0.019975311453208633,0.0010001997064747884,[-1.],-0.07,-0.02,-1.02,-1,"4.188,0.213,-0.04,1003.,0.39,0.340,0.134,0.995,17",1000.0,1000.0,1053.0,1071.0,0.0,0.0,0.0,0.0
24384.698541,0.0042857142857143215,-0.10005671023243679,-0.019975311453208633,0.0010001997064747884,[-1.],-0.07,-0.02,-1.02,-1,"4.188,0.213,-0.04,1003.,0.39,0.340,0.134,0.995,17",1000.0,1000.0,1053.0,1071.0,0.0,0.0,0.0,0.0
24421.100022,0.0042857142857143215,-0.10005671023243679,-0.019975311453208633,0.0010001997064747884,[-1.],-0.07,-0.02,-1.02,-1,"4.188,0.212,-0.04,1003.,0.390,0.340,0.134,0.995,17",1000.0,1000.0,1053.0,1071.0,0.0,0.0,0.0,0.0
24467.053596,0.0042857142857143215,-0.10005671023243679,-0.019975311453208633,0.0010001997064747884,[-1.],-0.07,-0.02,-1.02,-1,"4.188,0.208,-0.04,1003.,0.390,0.340,0.134,0.995,17",1000.0,1000.0,1053.0,1071.0,0.0,0.0,0.0,0.0
24514.641244,0.0042857142857143215,-0.10005671023243679,-0.019975311453208633,0.0010001997064747884,[-1.],-0.07,-0.02,-1.02,-1,"4.188,0.204,-0.04,1003.,0.390,0.340,0.134,0.995,17",1000.0,1000.0,1053.0,1071.0,0.0,0.0,0.0,0.0
24569.3508,0.0042857142857143215,-0.10005671023243679,-0.019975311453208633,0.0010001997064747884,[-1.],-0.07,-0.02,-1.02,-1,"4.188,0.203,-0.04,1003.,0.39,0.34,0.134,0.995,17",1000.0,1000.0,1053.0,1071.0,0.0,0.0,0.0,0.0
24674.956985,0.0042857142857143215,-0.10005671023243679,-0.019975311453208633,0.0010001997064747884,[-1.],-0.07,-0.02,-1.02,-1,"4.188,0.202,-0.04,1003.,0.390,0.340,0.134,0.995,17",1000.0,1000.0,1053.0,1071.0,0.0,0.0,0.0,0.0
24759.911115,0.0042857142857143215,-0.10005671023243679,-0.019975311453208633,0.0010001997064747884,[-1.],-0.07,-0.02,-1.02,-1,"4.188,0.202,-0.04,1003.,0.390,0.340,0.134,0.995,17",1000.0,1000.0,1053.0,1071.0,0.0,0.0,0.0,0.0
24828.346133,0.0042857142857143215,-0.10005671023243679,-0.019975311453208633,0.0010001997064747884,[-1.],-0.07,-0.02,-1.02,-1,"4.188,0.201,-0.04,1003.,0.390,0.34,0.134,0.995,17",1000.0,1000.0,1053.0,1071.0,0.0,0.0,0.0,0.0
24886.180226,0.0042857142857143215,-0.10005671023243679,-0.019975311453208633,0.0010001997064747884,[-1.],-0.07,-0.02,-1.02,-1,"4.188,0.202,-0.04,1003.,0.39,0.34,0.134,0.995,17",1000.0,1000.0,1053.0,1071.0,0.0,0.0,0.0,0.0
24943.71267,0.0042857142857143215,-0.10005671023243679,-0.019975311453208633,0.0010001997064747884,[-1.],-0.07,-0.02,-1.02,-1,"4.188,0.202,-0.04,1003.,0.390,0.340,0.134,0.995,17",1000.0,1000.0,1053.0,1071.0,0.0,0.0,0.0,0.0
25044.622152,0.0042857142857143215,-0.10005671023243679,-0.019975311453208633,0.0010001997064747884,[-1.],-0.07,-0.02,-1.02,-1,"4.188,0.203,-0.04,1003.,0.390,0.340,0.134,0.995,17",1000.0,1000.0,1053.0,1071.0,0.0,0.0,0.0,0.0
25124.716226,0.0042857142857143215,-0.10005671023243679,-0.019975311453208633,0.0010001997064747884,[-1.],-0.07,-0.02,-1.02,-1,"4.188,0.202,-0.04,1003.,0.390,0.340,0.134,0.995,17",1000.0,1000.0,1053.0,1071.0,0.0,0.0,0.0,0.0
25180.008985,0.0042857142857143215,-0.10005671023243679,-0.019975311453208633,0.0010001997064747884,[-1.],-0.07,-0.02,-1.02,-1,"4.188,0.203,-0.04,1003.,0.39,0.340,0.134,0.995,17",1000.0,1000.0,1053.0,1071.0,0.0,0.0,0.0,0.0
25264.415318,0.0042857142857143215,-0.10005671023243679,-0.019975311453208633,0.0010001997064747884,[-1.],-0.07,-0.02,-1.02,-1,"4.188,0.199,-0.04,1003.,0.39,0.340,0.134,0.995,17",1000.0,1000.0,1053.0,1071.0,0.0,0.0,0.0,0.0
25361.179281,0.0042857142857143215,-0.10005671023243679,-0.019975311453208633,0.0010001997064747884,[-1.],-0.07,-0.02,-1.02,-1,"4.636,0.195,-0.04,1003.,0.390,0.340,0.134,0.995,17",1000.0,1000.0,1053.0,1071.0,0.0,0.0,0.0,0.0
25423.726151,0.0042857142857143215,-0.10005671023243679,-0.019975311453208633,0.0010001997064747884,[-1.],-0.07,-0.02,-1.02,-1,"4.262,0.195,-0.04,1003.,0.390,0.340,0.134,0.995,17",1000.0,1000.0,1053.0,1071.0,0.0,0.0,0.0,0.0
25498.374614,0.0042857142857143215,-0.10005671023243679,-0.019975311453208633,0.0010001997064747884,[-1.],-0.07,-0.02,-1.02,-1,"4.337,0.194,-0.04,1003.,0.390,0.340,0.134,0.995,17",1000.0,1000.0,1053.0,1071.0,0.0,0.0,0.0,0.0
25549.166336,0.0042857142857143215,-0.10005671023243679,-0.019975311453208633,0.0010001997064747884,[-1.],-0.07,-0.02,-1.02,-1,"4.337,0.195,-0.04,1003.,0.390,0.340,0.134,0.995,17",1000.0,1000.0,1053.0,1071.0,0.0,0.0,0.0,0.0
25611.038077,0.0042857142857143215,-0.10005671023243679,-0.019975311453208633,0.0010001997064747884,[-1.],-0.07,-0.02,-1.02,-1,"4.412,0.191,-0.04,1003.,0.390,0.340,0.134,0.995,17",1000.0,1000.0,1053.0,1071.0,0.0,0.0,0.0,0.0
25684.68954,0.0042857142857143215,-0.10005671023243679,-0.019975311453208633,0.0010001997064747884,[-1.],-0.07,-0.02,-1.02,-1,"4.412,0.189,-0.04,1003.,0.390,0.340,0.134,0.995,17",1000.0,1000.0,1053.0,1071.0,0.0,0.0,0.0,0.0
25768.474892,0.0042857142857143215,-0.10005671023243679,-0.019975311453208633,0.0010001997064747884,[-1.],-0.07,-0.02,-1.02,-1,"4.188,0.187,-0.04,1003.,0.390,0.34,0.134,0.995,17",1000.0,1000.0,1053.0,1071.0,0.0,0.0,0.0,0.0
25892.151558,0.0042857142857143215,-0.10005671023243679,-0.019975311453208633,0.0010001997064747884,[-1.],-0.07,-0.02,-1.02,-1,"4.188,0.185,-0.04,1003.,0.390,0.34,0.134,0.995,17",1000.0,1000.0,1053.0,1071.0,0.0,0.0,0.0,0.0
26026.856373,0.0042857142857143215,-0.10005671023243679,-0.019975311453208633,0.0010001997064747884,[-1.],-0.07,-0.02,-1.02,-1,"4.262,0.185,-0.04,1003.,0.390,0.340,0.134,0.995,17",1000.0,1000.0,1053.0,1071.0,0.0,0.0,0.0,0.0
26074.287818,0.0042857142857143215,-0.10005671023243679,-0.019975311453208633,0.0010001997064747884,[-1.],-0.07,-0.02,-1.02,-1,"3.814,0.185,-0.04,1003.,0.39,0.340,0.134,0.995,17",1000.0,1000.0,1053.0,1071.0,0.0,0.0,0.0,0.0
26133.235836,0.0042857142857143215,-0.10005671023243679,-0.019975311453208633,0.0010001997064747884,[-1.],-0.07,-0.02,-1.02,-1,"3.440,0.186,-0.04,1003.,0.390,0.34,0.134,0.995,17",1000.0,1000.0,1053.0,1071.0,0.0,0.0,0.0,0.0
26203.484225,0.0042857142857143215,-0.10005671023243679,-0.019975311453208633,0.0010001997064747884,[-1.],-0.07,-0.02,-1.02,-1,"3.664,0.185,-0.04,1003.,0.390,0.340,0.134,0.995,17",1000.0,1000.0,1053.0,1071.0,0.0,0.0,0.0,0.0
26283.235243,0.0042857142857143215,-0.10005671023243679,-0.019975311453208633,0.0010001997064747884,[-1.],-0.07,-0.02,-1.02,-1,"3.888,0.186,-0.04,1003.,0.39,0.340,0.134,0.995,17",1000.0,1000.0,1053.0,1071.0,0.0,0.0,0.0,0.0
26314.682799,0.0042857142857143215,-0.10005671023243679,-0.019975311453208633,0.0010001997064747884,[-1.],-0.07,-0.02,-1.02,-1,"4.262,0.186,-0.04,1003.,0.390,0.340,0.134,0.995,17",1000.0,1000.0,1053.0,1071.0,0.0,0.0,0.0,0.0
26416.05641,0.0042857142857143215,-0.10005671023243679,-0.019975311453208633,0.0010001997064747884,[-1.],-0.07,-0.02,-1.02,-1,"4.188,0.186,-0.04,1003.,0.390,0.340,0.134,0.995,17",1000.0,1000.0,1053.0,1071.0,0.0,0.0,0.0,0.0
26498.517021,0.0042857142857143215,-0.10005671023243679,-0.019975311453208633,0.0010001997064747884,[-1.],-0.07,-0.02,-1.02,-1,"4.262,0.186,-0.04,1003.,0.390,0.340,0.134,0.995,17",1000.0,1000.0,1053.0,1071.0,0.0,0.0,0.0,0.0
26608.788873,0.0042857142857143215,-0.10005671023243679,-0.019975311453208633,0.0010001997064747884,[-1.],-0.07,-0.02,-1.02,-1,"4.188,0.186,-0.04,1003.,0.39,0.340,0.134,0.995,17",1000.0,1000.0,1053.0,1071.0,0.0,0.0,0.0,0.0
26681.43678,0.0042857142857143215,-0.10005671023243679,-0.019975311453208633,0.0010001997064747884,[-1.],-0.07,-0.02,-1.02,-1,"4.188,0.186,-0.04,1003.,0.390,0.340,0.134,0.995,17",1000.0,1000.0,1053.0,1071.0,0.0,0.0,0.0,0.0
26723.696521,0.0042857142857143215,-0.10005671023243679,-0.019975311453208633,0.0010001997064747884,[-1.],-0.07,-0.02,-1.02,-1,"4.188,0.186,-0.04,1003.,0.390,0.340,0.134,0.995,17",1000.0,1000.0,1053.0,1071.0,0.0,0.0,0.0,0.0
26743.914965,0.0042857142857143215,-0.10005671023243679,-0.019975311453208633,0.0010001997064747884,[-1.],-0.07,-0.02,-1.02,-1,"4.188,0.186,-0.04,1003.,0.390,0.340,0.134,0.995,17",1000.0,1000.0,1053.0,1071.0,0.0,0.0,0.0,0.0
26776.651021,0.0042857142857143215,-0.10005671023243679,-0.019975311453208633,0.0010001997064747884,[-1.],-0.07,-0.02,-1.02,-1,"4.188,0.186,-0.04,1003.,0.390,0.34,0.134,0.995,17",1000.0,1000.0,1053.0,1071.0,0.0,0.0,0.0,0.0
26812.274873,0.0042857142857143215,-0.10005671023243679,-0.019975311453208633,0.0010001997064747884,[-1.],-0.07,-0.02,-1.02,-1,"4.188,0.186,-0.04,1003.,0.39,0.340,0.134,0.995,17",1000.0,1000.0,1053.0,1071.0,0.0,0.0,0.0,0.0
26853.849521,0.0042857142857143215,-0.10005671023243679,-0.019975311453208633,0.0010001997064747884,[-1.],-0.07,-0.02,-1.02,-1,"4.188,0.186,-0.04,1003.,0.390,0.340,0.134,0.995,17",1000.0,1000.0,1053.0,1071.0,0.0,0.0,0.0,0.0
26961.676187,0.0042857142857143215,-0.10005671023243679,-0.019975311453208633,0.0010001997064747884,[-1.],-0.07,-0.02,-1.02,-1,"4.262,0.186,-0.04,1003.,0.390,0.340,0.134,0.995,17",1000.0,1000.0,1053.0,1071.0,0.0,0.0,0.0,0.0
26988.246206,0.0042857142857143215,-0.10005671023243679,-0.019975311453208633,0.0010001997064747884,[-1.],-0.07,-0.02,-1.02,-1,"4.262,0.186,-0.04,1003.,0.390,0.340,0.134,0.995,17",1000.0,1000.0,1053.0,1071.0,0.0,0.0,0.0,0.0
27147.13615,0.0042857142857143215,-0.10005671023243679,-0.019975311453208633,0.0010001997064747884,[-1.],-0.07,-0.02,-1.02,-1,"4.188,0.186,-0.04,1003.,0.390,0.340,0.134,0.995,17",1000.0,1000.0,1053.0,1071.0,0.0,0.0,0.0,0.0
27190.204373,0.0042857142857143215,-0.10005671023243679,-0.019975311453208633,0.0010001997064747884,[-1.],-0.07,-0.02,-1.02,-1,"4.188,0.186,-0.04,1003.,0.390,0.340,0.134,0.995,17",1000.0,1000.0,1053.0,1071.0,0.0,0.0,0.0,0.0
27234.044206,0.0042857142857143215,-0.10005671023243679,-0.019975311453208633,0.0010001997064747884,[-1.],-0.07,-0.02,-1.02,-1,"4.188,0.186,-0.04,1003.,0.39,0.340,0.134,0.995,17",1000.0,1000.0,1053.0,1071.0,0.0,0.0,0.0,0.0
27252.526484,0.0042857142857143215,-0.10005671023243679,-0.019975311453208633,0.0010001997064747884,[-1.],-0.07,-0.02,-1.02,-1,"4.262,0.186,-0.04,1003.,0.39,0.340,0.134,0.995,17",1000.0,1000.0,1053.0,1071.0,0.0,0.0,0.0,0.0
27325.737058,0.0042857142857143215,-0.10005671023243679,-0.019975311453208633,0.0010001997064747884,[-1.],-0.07,-0.02,-1.02,-1,"4.188,0.186,-0.04,1003.,0.39,0.340,0.134,0.995,17",1000.0,1000.0,1053.0,1071.0,0.0,0.0,0.0,0.0
27425.968872,0.0042857142857143215,-0.10005671023243679,-0.019975311453208633,0.0010001997064747884,[-1.],-0.07,-0.02,-1.02,-1,"4.188,0.188,-0.04,1003.,0.390,0.340,0.134,0.995,17",1000.0,1000.0,1053.0,1071.0,0.0,0.0,0.0,0.0
27514.543335,0.0042857142857143215,-0.10005671023243679,-0.019975311453208633,0.0010001997064747884,[-1.],-0.07,-0.02,-1.02,-1,"4.262,0.189,-0.04,1003.,0.39,0.340,0.134,0.995,17",1000.0,1000.0,1053.0,1071.0,0.0,0.0,0.0,0.0
27559.752391,0.0042857142857143215,-0.10005671023243679,-0.019975311453208633,0.0010001997064747884,[-1.],-0.07,-0.02,-1.02,-1,"4.188,0.188,-0.04,1003.,0.390,0.340,0.134,0.995,17",1000.0,1000.0,1053.0,1071.0,0.0,0.0,0.0,0.0
27587.771409,0.0042857142857143215,-0.10005671023243679,-0.019975311453208633,0.0010001997064747884,[-1.],-0.07,-0.02,-1.02,-1,"4.188,0.187,-0.04,1003.,0.39,0.340,0.134,0.995,17",1000.0,1000.0,1053.0,1071.0,0.0,0.0,0.0,0.0
27646.18678,0.0042857142857143215,-0.10005671023243679,-0.019975311453208633,0.0010001997064747884,[-1.],-0.07,-0.02,-1.02,-1,"4.188,0.188,-0.04,1003.,0.390,0.340,0.134,0.995,17",1000.0,1000.0,1053.0,1071.0,0.0,0.0,0.0,0.0
27687.670354,0.0042857142857143215,-0.10005671023243679,-0.019975311453208633,0.0010001997064747884,[-1.],-0.07,-0.02,-1.02,-1,"4.188,0.187,-0.04,1003.,0.390,0.340,0.134,0.995,17",1000.0,1000.0,1053.0,1071.0,0.0,0.0,0.0,0.0
27739.168076,0.0042857142857143215,-0.10005671023243679,-0.019975311453208633,0.0010001997064747884,[-1.],-0.07,-0.02,-1.02,-1,"4.188,0.187,-0.04,1003.,0.390,0.340,0.134,0.995,17",1000.0,1000.0,1053.0,1071.0,0.0,0.0,0.0,0.0
27783.141687,0.0042857142857143215,-0.10005671023243679,-0.019975311453208633,0.0010001997064747884,[-1.],-0.07,-0.02,-1.02,-1,"4.188,0.188,-0.04,1003.,0.390,0.340,0.134,0.995,17",1000.0,1000.0,1053.0,1071.0,0.0,0.0,0.0,0.0
27855.522076,0.0042857142857143215,-0.10005671023243679,-0.019975311453208633,0.0010001997064747884,[-1.],-0.07,-0.02,-1.02,-1,"4.262,0.189,-0.04,1003.,0.39,0.340,0.134,0.995,17",1000.0,1000.0,1053.0,1071.0,0.0,0.0,0.0,0.0
27918.037798,0.0042857142857143215,-0.10005671023243679,-0.019975311453208633,0.0010001997064747884,[-1.],-0.07,-0.02,-1.02,-1,"4.188,0.188,-0.04,1003.,0.390,0.34,0.134,0.995,17",1000.0,1000.0,1053.0,1071.0,0.0,0.0,0.0,0.0
27954.614094,0.0042857142857143215,-0.10005671023243679,-0.019975311453208633,0.0010001997064747884,[-1.],-0.07,-0.02,-1.02,-1,"4.188,0.188,-0.04,1003.,0.390,0.340,0.134,0.995,17",1000.0,1000.0,1053.0,1071.0,0.0,0.0,0.0,0.0
27993.062242,0.0042857142857143215,-0.10005671023243679,-0.019975311453208633,0.0010001997064747884,[-1.],-0.07,-0.02,-1.02,-1,"4.262,0.188,-0.04,1003.,0.390,0.340,0.134,0.995,17",1000.0,1000.0,1053.0,1071.0,0.0,0.0,0.0,0.0
28032.332372,0.0042857142857143215,-0.10005671023243679,-0.019975311453208633,0.0010001997064747884,[-1.],-0.07,-0.02,-1.02,-1,"4.188,0.188,-0.04,1003.,0.390,0.340,0.134,0.995,17",1000.0,1000.0,1053.0,1071.0,0.0,0.0,0.0,0.0
28080.258835,0.0042857142857143215,-0.10005671023243679,-0.019975311453208633,0.0010001997064747884,[-1.],-0.07,-0.02,-1.02,-1,"4.262,0.188,-0.04,1003.,0.39,0.340,0.134,0.995,17",1000.0,1000.0,1053.0,1071.0,0.0,0.0,0.0,0.0
28147.379798,0.0042857142857143215,-0.10005671023243679,-0.019975311453208633,0.0010001997064747884,[-1.],-0.07,-0.02,-1.02,-1,"4.262,0.187,-0.04,1003.,0.390,0.340,0.134,0.995,17",1000.0,1000.0,1053.0,1071.0,0.0,0.0,0.0,0.0
28184.38065,0.0042857142857143215,-0.10005671023243679,-0.019975311453208633,0.0010001997064747884,[-1.],-0.07,-0.02,-1.02,-1,"4.262,0.188,-0.04,1003.,0.390,0.340,0.134,0.995,17",1000.0,1000.0,1053.0,1071.0,0.0,0.0,0.0,0.0
28231.545298,0.0042857142857143215,-0.10005671023243679,-0.019975311453208633,0.0010001997064747884,[-1.],-0.07,-0.02,-1.02,-1,"4.188,0.197,-0.04,1003.,0.390,0.340,0.134,0.995,17",1000.0,1000.0,1053.0,1071.0,0.0,0.0,0.0,0.0
28284.318983,0.0042857142857143215,-0.10005671023243679,-0.019975311453208633,0.0010001997064747884,[-1.],-0.07,-0.02,-1.02,-1,"4.188,0.199,-0.04,1003.,0.390,0.340,0.134,0.995,17",1000.0,1000.0,1053.0,1071.0,0.0,0.0,0.0,0.0
