timestamp,throttle_ref,yaw,pitch,roll,tof_measurement,accX,accY,accZ,altitude_ref,RC_data,mot_FL,mot_FR,mot_BL,mot_BR,KF_altitutde_est,KF_velocity_z_est,KF_alpha_est,KF_beta_est
3875.181294,0.0,0.0,0.0,0.0,[-1.],0.0,0.0,0.0,-1,"0.0,0.0,0.0,1000.,0.390,0.340,0.134,1.0,17",0.0,0.0,0.0,0.0,0.0,0.0,0.0,0.0
3969.286776,0.0,-1.5108713983179345,-0.17252335621044446,0.08004962526556031,[-1.],0.04,-0.01,-1.03,-1,"0.0,0.0,0.0,1000.,0.390,0.340,0.134,1.0,17",1000.0,1000.0,1032.0,1075.0,0.0,0.0,0.0,0.0
4021.798831,0.0,-1.5108713983179345,-0.17252335621044446,0.08004962526556031,[-1.],0.04,-0.01,-1.03,-1,"0.0,0.0,0.0,1000.,0.390,0.340,0.134,1.0,17",1000.0,1000.0,1032.0,1075.0,0.0,0.0,0.0,0.0
4220.893739,0.0,-1.5108713983179345,-0.17252335621044446,0.08004962526556031,[-1.],0.04,-0.01,-1.03,-1,"0.0,0.0,0.0,1000.,0.390,0.340,0.134,1.0,17",1000.0,1000.0,1032.0,1075.0,0.0,0.0,0.0,0.0
4373.96372,0.0,-1.5108713983179345,-0.17252335621044446,0.08004962526556031,[-1.],0.04,-0.01,-1.03,-1,"0.0,0.0,0.0,1000.,0.390,0.340,0.134,1.0,17",1000.0,1000.0,1032.0,1075.0,0.0,0.0,0.0,0.0
4466.377405,0.0,-1.5108713983179345,-0.17252335621044446,0.08004962526556031,[-1.],0.04,-0.01,-1.03,-1,"0.0,0.0,0.0,1000.,0.390,0.340,0.134,1.0,17",1000.0,1000.0,1032.0,1075.0,0.0,0.0,0.0,0.0
4587.873905,0.0,-1.5108713983179345,-0.17252335621044446,0.08004962526556031,[-1.],0.04,-0.01,-1.03,-1,"0.0,0.0,0.0,1000.,0.390,0.340,0.134,1.0,17",1000.0,1000.0,1032.0,1075.0,0.0,0.0,0.0,0.0
4724.992497,0.0,-1.5108713983179345,-0.17252335621044446,0.08004962526556031,[-1.],0.04,-0.01,-1.03,-1,"0.0,0.0,0.0,1000.,0.390,0.340,0.134,1.0,17",1000.0,1000.0,1032.0,1075.0,0.0,0.0,0.0,0.0
4930.854183,0.0,-1.5108713983179345,-0.17252335621044446,0.08004962526556031,[-1.],0.04,-0.01,-1.03,-1,"0.0,0.0,0.0,1000.,0.39,0.340,0.134,1.0,17",1000.0,1000.0,1032.0,1075.0,0.0,0.0,0.0,0.0
5048.648849,0.0,-1.5108713983179345,-0.17252335621044446,0.08004962526556031,[-1.],0.04,-0.01,-1.03,-1,"0.0,0.0,0.0,1000.,0.390,0.340,0.134,1.0,17",1000.0,1000.0,1032.0,1075.0,0.0,0.0,0.0,0.0
5116.699201,0.0,-1.5108713983179345,-0.17252335621044446,0.08004962526556031,[-1.],0.04,-0.01,-1.03,-1,"0.0,0.0,0.0,1000.,0.390,0.340,0.134,1.0,17",1000.0,1000.0,1032.0,1075.0,0.0,0.0,0.0,0.0
5203.643553,0.0,-1.5108713983179345,-0.17252335621044446,0.08004962526556031,[-1.],0.04,-0.01,-1.03,-1,"0.0,0.0,0.0,1000.,0.390,0.340,0.134,1.0,17",1000.0,1000.0,1032.0,1075.0,0.0,0.0,0.0,0.0
5322.411682,0.0,-1.5108713983179345,-0.17252335621044446,0.08004962526556031,[-1.],0.04,-0.01,-1.03,-1,"0.0,0.0,0.0,1000.,0.390,0.340,0.134,1.0,17",1000.0,1000.0,1032.0,1075.0,0.0,0.0,0.0,0.0
5415.878664,0.0042857142857143215,-1.5108713983179345,-0.17252335621044446,0.08004962526556031,[-1.],0.04,-0.01,-1.03,-1,"4.561,0.048,-0.04,1003.,0.390,0.340,0.134,0.995,16",1000.0,1000.0,1032.0,1075.0,0.0,0.0,0.0,0.0
5499.275534,0.0042857142857143215,-1.5108713983179345,-0.17252335621044446,0.08004962526556031,[-1.],0.04,-0.01,-1.03,-1,"4.636,0.048,-0.04,1003.,0.390,0.340,0.135,0.995,16",1000.0,1000.0,1032.0,1075.0,0.0,0.0,0.0,0.0
5771.457608,0.0042857142857143215,-1.2814383956890039,-0.2008654762763562,0.09998852396155208,[-1.],0.05,-0.01,-1.02,-1,"4.487,0.048,-0.04,1003.,0.39,0.340,0.134,0.995,16",1000.0,1000.0,1035.0,1082.0,0.0,0.0,0.0,0.0
5870.711997,0.0042857142857143215,-1.2497784596949744,-0.16970221226932747,0.07313959845707725,[-1.],0.06,0.02,-1.02,-1,"4.412,0.048,-0.04,1003.,0.390,0.340,0.134,0.995,16",1000.0,1000.0,1035.0,1072.0,0.0,0.0,0.0,0.0
5904.920163,0.0042857142857143215,-1.2497784596949744,-0.16970221226932747,0.07313959845707725,[-1.],0.06,0.02,-1.02,-1,"4.337,0.048,-0.04,1003.,0.390,0.340,0.134,0.995,16",1000.0,1000.0,1035.0,1072.0,0.0,0.0,0.0,0.0
6001.56596,0.0042857142857143215,-1.2250282598603466,-0.17058819511648338,0.07103163780376985,[-1.],0.01,-0.01,-1.01,-1,"4.337,0.047,-0.04,1003.,0.390,0.340,0.134,0.995,16",1000.0,1000.0,1034.0,1070.0,0.0,0.0,0.0,0.0
6151.173108,0.0042857142857143215,-1.2250282598603466,-0.17058819511648338,0.07103163780376985,[-1.],0.03,-0.01,-1.01,-1,"4.412,0.048,-0.04,1003.,0.39,0.340,0.134,0.995,16",1000.0,1000.0,1031.0,1073.0,0.0,0.0,0.0,0.0
6329.437756,0.0042857142857143215,-1.2250282598603466,-0.17058819511648338,0.07103163780376985,[-1.],0.03,0.02,-1.01,-1,"4.487,0.048,-0.04,1003.,0.390,0.340,0.134,0.995,16",1000.0,1000.0,1035.0,1068.0,0.0,0.0,0.0,0.0
6489.667163,0.0042857142857143215,-1.2004851269151968,-0.17144102898210511,0.06893042355138403,[-1.],0.07,-0.02,-1.01,-1,"4.487,0.048,-0.04,1003.,0.39,0.340,0.134,0.995,16",1000.0,1000.0,1032.0,1070.0,0.0,0.0,0.0,0.0
6603.0762,0.0042857142857143215,-1.176140385733068,-0.1722615289220384,0.06683579667097489,[-1.],0.06,-0.02,-1.02,-1,"4.487,0.048,-0.04,1003.,0.390,0.340,0.134,0.995,16",1000.0,1000.0,1031.0,1069.0,0.0,0.0,0.0,0.0
6764.671793,0.0042857142857143215,-1.151985828673759,-0.1730504632162997,0.06474760812442809,[-1.],0.06,-0.02,-1.01,-1,"4.412,0.048,-0.04,1003.,0.39,0.340,0.134,0.995,16",1000.0,1000.0,1026.0,1073.0,0.0,0.0,0.0,0.0
6942.670052,0.0042857142857143215,-1.151985828673759,-0.1730504632162997,0.06474760812442809,[-1.],0.05,-0.01,-1.02,-1,"4.487,0.047,-0.04,1003.,0.39,0.340,0.135,0.995,16",1000.0,1000.0,1028.0,1071.0,0.0,0.0,0.0,0.0
6992.025737,0.0042857142857143215,-1.1280136791338315,-0.17380855683757312,0.06266571811516064,[-1.],0.06,-0.01,-1.01,-1,"4.487,0.048,-0.04,1003.,0.39,0.340,0.134,0.995,16",1000.0,1000.0,1025.0,1073.0,0.0,0.0,0.0,0.0
7127.972403,0.0042857142857143215,-1.104216558597639,-0.17453649458737153,0.06058999541078759,[-1.],0.06,-0.02,-1.01,-1,"4.487,0.048,-0.04,1003.,0.390,0.340,0.134,0.995,16",1000.0,1000.0,1029.0,1068.0,0.0,0.0,0.0,0.0
7307.461551,0.0042857142857143215,-1.1017979872521562,-0.15747832096055503,0.04982990621323885,[-1.],0.05,0.0,-1.02,-1,"4.412,0.047,-0.04,1003.,0.390,0.340,0.134,0.995,16",1000.0,1000.0,1028.0,1069.0,0.0,0.0,0.0,0.0
7374.515477,0.0042857142857143215,-1.07822373818744,-0.1580512179199165,0.047967532483369615,[-1.],0.05,0.01,-1.02,-1,"4.412,0.047,-0.04,1003.,0.390,0.340,0.134,0.995,16",1000.0,1000.0,1029.0,1069.0,0.0,0.0,0.0,0.0
7407.856607,0.0042857142857143215,-1.07822373818744,-0.1580512179199165,0.047967532483369615,[-1.],0.05,-0.0,-1.02,-1,"4.412,0.047,-0.04,1003.,0.390,0.340,0.134,0.995,16",1000.0,1000.0,1029.0,1068.0,0.0,0.0,0.0,0.0
7439.475718,0.0042857142857143215,-1.0548108381835026,-0.1585985259612639,0.04611122917760433,[-1.],0.05,-0.01,-1.02,-1,"4.412,0.047,-0.04,1003.,0.39,0.340,0.134,0.995,16",1000.0,1000.0,1029.0,1067.0,0.0,0.0,0.0,0.0
7473.325514,0.0042857142857143215,-1.0548108381835026,-0.1585985259612639,0.04611122917760433,[-1.],0.05,-0.01,-1.02,-1,"4.487,0.048,-0.04,1003.,0.390,0.340,0.134,0.995,16",1000.0,1000.0,1028.0,1069.0,0.0,0.0,0.0,0.0
7506.858718,0.0042857142857143215,-1.0548108381835026,-0.1585985259612639,0.04611122917760433,[-1.],0.05,-0.01,-1.02,-1,"4.412,0.048,-0.04,1003.,0.39,0.34,0.134,0.995,16",1000.0,1000.0,1028.0,1068.0,0.0,0.0,0.0,0.0
7548.775681,0.0042857142857143215,-1.0548108381835026,-0.1585985259612639,0.04611122917760433,[-1.],0.05,-0.01,-1.01,-1,"4.412,0.048,-0.04,1003.,0.390,0.340,0.134,0.995,16",1000.0,1000.0,1027.0,1068.0,0.0,0.0,0.0,0.0
7573.464237,0.0042857142857143215,-1.0548108381835026,-0.1585985259612639,0.04611122917760433,[-1.],0.05,-0.02,-1.02,-1,"4.412,0.048,-0.04,1003.,0.390,0.340,0.134,0.995,16",1000.0,1000.0,1027.0,1069.0,0.0,0.0,0.0,0.0
7609.069014,0.0042857142857143215,-1.0548108381835026,-0.1585985259612639,0.04611122917760433,[-1.],0.04,-0.01,-1.02,-1,"4.412,0.047,-0.04,1003.,0.390,0.340,0.134,0.995,16",1000.0,1000.0,1028.0,1068.0,0.0,0.0,0.0,0.0
7671.42194,0.0042857142857143215,-1.0315529412629507,-0.15912075960480365,0.04426088222261248,[-1.],0.05,-0.0,-1.01,-1,"4.412,0.048,-0.04,1003.,0.390,0.340,0.134,0.995,16",1000.0,1000.0,1028.0,1068.0,0.0,0.0,0.0,0.0
7758.60931,0.0042857142857143215,-1.0315529412629507,-0.15912075960480365,0.04426088222261248,[-1.],0.05,-0.01,-1.01,-1,"4.337,0.048,-0.04,1003.,0.39,0.340,0.134,0.995,16",1000.0,1000.0,1027.0,1069.0,0.0,0.0,0.0,0.0
7801.572181,0.0042857142857143215,-1.0315529412629507,-0.15912075960480365,0.04426088222261248,[-1.],0.05,0.01,-1.02,-1,"4.412,0.048,-0.04,1003.,0.390,0.340,0.134,0.995,16",1000.0,1000.0,1030.0,1066.0,0.0,0.0,0.0,0.0
7887.642644,0.0042857142857143215,-1.0315529412629507,-0.15912075960480365,0.04426088222261248,[-1.],0.05,-0.01,-1.01,-1,"4.337,0.048,-0.04,1003.,0.390,0.340,0.134,0.995,16",1000.0,1000.0,1028.0,1067.0,0.0,0.0,0.0,0.0
7945.461755,0.0042857142857143215,-1.0084439942073828,-0.15961840658119852,0.042416384001180016,[-1.],0.05,-0.01,-1.02,-1,"4.337,0.048,-0.04,1003.,0.39,0.34,0.134,0.995,16",1000.0,1000.0,1029.0,1066.0,0.0,0.0,0.0,0.0
8020.535144,0.0042857142857143215,-1.0084439942073828,-0.15961840658119852,0.042416384001180016,[-1.],0.04,-0.01,-1.02,-1,"4.412,0.048,-0.04,1003.,0.390,0.340,0.134,0.995,16",1000.0,1000.0,1031.0,1064.0,0.0,0.0,0.0,0.0
8073.849644,0.0042857142857143215,-1.0093956544379858,-0.14993003445775654,0.06003807375664295,[-1.],0.05,-0.01,-1.02,-1,"4.412,0.048,-0.04,1003.,0.390,0.340,0.134,0.995,16",1000.0,1000.0,1029.0,1065.0,0.0,0.0,0.0,0.0
8119.233366,0.0042857142857143215,-0.9864619262621467,-0.15060495635313953,0.05831321192232014,[-1.],0.05,-0.02,-1.02,-1,"4.412,0.048,-0.04,1003.,0.391,0.340,0.134,0.995,16",1000.0,1000.0,1028.0,1066.0,0.0,0.0,0.0,0.0
8206.111514,0.0042857142857143215,-0.9864619262621467,-0.15060495635313953,0.05831321192232014,[-1.],0.05,0.01,-1.02,-1,"4.337,0.048,-0.04,1003.,0.39,0.340,0.134,0.995,16",1000.0,1000.0,1030.0,1065.0,0.0,0.0,0.0,0.0
8240.082477,0.0042857142857143215,-0.9864619262621467,-0.15060495635313953,0.05831321192232014,[-1.],0.04,-0.01,-1.02,-1,"4.337,0.048,-0.04,1003.,0.39,0.340,0.134,0.995,16",1000.0,1000.0,1028.0,1066.0,0.0,0.0,0.0,0.0
8307.775884,0.0042857142857143215,-0.9864619262621467,-0.15060495635313953,0.05831321192232014,[-1.],0.05,-0.01,-1.03,-1,"4.262,0.048,-0.04,1003.,0.390,0.340,0.134,0.995,16",1000.0,1000.0,1029.0,1064.0,0.0,0.0,0.0,0.0
8368.491106,0.0042857142857143215,-0.9636649984282519,-0.15125626759597677,0.05659095787366358,[-1.],0.05,-0.01,-1.02,-1,"4.412,0.048,-0.04,1003.,0.390,0.340,0.134,0.995,16",1000.0,1000.0,1028.0,1065.0,0.0,0.0,0.0,0.0
8439.887477,0.0042857142857143215,-0.9636649984282519,-0.15125626759597677,0.05659095787366358,[-1.],0.06,-0.01,-1.01,-1,"4.412,0.048,-0.04,1003.,0.390,0.340,0.134,0.995,16",1000.0,1000.0,1028.0,1065.0,0.0,0.0,0.0,0.0
8486.653625,0.0042857142857143215,-0.9636649984282519,-0.15125626759597677,0.05659095787366358,[-1.],0.04,-0.01,-1.02,-1,"4.337,0.048,-0.04,1003.,0.390,0.340,0.134,0.995,16",1000.0,1000.0,1031.0,1063.0,0.0,0.0,0.0,0.0
8578.537069,0.0042857142857143215,-0.9636649984282519,-0.15125626759597677,0.05659095787366358,[-1.],0.04,-0.0,-1.03,-1,"4.337,0.048,-0.04,1003.,0.390,0.340,0.134,0.995,16",1000.0,1000.0,1028.0,1064.0,0.0,0.0,0.0,0.0
8611.673366,0.0042857142857143215,-0.9409995867019364,-0.15188438278010064,0.0548712708949283,[-1.],0.04,-0.01,-1.02,-1,"4.337,0.047,-0.04,1003.,0.390,0.340,0.134,0.995,16",1000.0,1000.0,1029.0,1064.0,0.0,0.0,0.0,0.0
8652.910977,0.0042857142857143215,-0.9409995867019364,-0.15188438278010064,0.0548712708949283,[-1.],0.05,-0.01,-1.01,-1,"4.337,0.047,-0.04,1003.,0.390,0.340,0.134,0.995,16",1000.0,1000.0,1028.0,1064.0,0.0,0.0,0.0,0.0
8693.124199,0.0042857142857143215,-0.9409995867019364,-0.15188438278010064,0.0548712708949283,[-1.],0.05,-0.02,-1.01,-1,"4.412,0.048,-0.04,1003.,0.39,0.340,0.134,0.995,16",1000.0,1000.0,1028.0,1064.0,0.0,0.0,0.0,0.0
8748.042995,0.0042857142857143215,-0.9409995867019364,-0.15188438278010064,0.0548712708949283,[-1.],0.05,-0.02,-1.01,-1,"4.412,0.047,-0.04,1003.,0.39,0.340,0.134,0.995,16",1000.0,1000.0,1027.0,1064.0,0.0,0.0,0.0,0.0
8820.315514,0.0042857142857143215,-0.9184606272817554,-0.1524896958308839,0.05315411275990535,[-1.],0.06,-0.0,-1.02,-1,"4.487,0.048,-0.04,1003.,0.390,0.340,0.134,0.995,16",1000.0,1000.0,1029.0,1063.0,0.0,0.0,0.0,0.0
8876.246865,0.0042857142857143215,-0.9184606272817554,-0.1524896958308839,0.05315411275990535,[-1.],0.05,-0.0,-1.01,-1,"4.487,0.048,-0.04,1003.,0.390,0.340,0.134,0.995,16",1000.0,1000.0,1028.0,1064.0,0.0,0.0,0.0,0.0
8944.063162,0.0042857142857143215,-0.9184606272817554,-0.1524896958308839,0.05315411275990535,[-1.],0.03,-0.02,-1.01,-1,"4.487,0.048,-0.04,1003.,0.390,0.340,0.134,0.995,16",1000.0,1000.0,1029.0,1062.0,0.0,0.0,0.0,0.0
8976.866847,0.0042857142857143215,-0.9184606272817554,-0.1524896958308839,0.05315411275990535,[-1.],0.04,-0.03,-1.01,-1,"4.487,0.048,-0.04,1003.,0.390,0.340,0.134,0.995,16",1000.0,1000.0,1027.0,1063.0,0.0,0.0,0.0,0.0
9022.066976,0.0042857142857143215,-0.8960432623242495,-0.1530725812223892,0.05143944758331465,[-1.],0.05,-0.02,-1.01,-1,"4.412,0.048,-0.04,1003.,0.390,0.340,0.134,0.995,16",1000.0,1000.0,1027.0,1064.0,0.0,0.0,0.0,0.0
9047.364569,0.0042857142857143215,-0.8960432623242495,-0.1530725812223892,0.05143944758331465,[-1.],0.06,-0.01,-1.02,-1,"4.412,0.048,-0.04,1003.,0.390,0.340,0.134,0.995,16",1000.0,1000.0,1028.0,1064.0,0.0,0.0,0.0,0.0
9072.403125,0.0042857142857143215,-0.8960432623242495,-0.1530725812223892,0.05143944758331465,[-1.],0.06,-0.01,-1.01,-1,"4.412,0.047,-0.04,1003.,0.39,0.340,0.134,0.995,16",1000.0,1000.0,1028.0,1063.0,0.0,0.0,0.0,0.0
9141.391643,0.0042857142857143215,-0.8960432623242495,-0.1530725812223892,0.05143944758331465,[-1.],0.04,-0.01,-1.02,-1,"4.487,0.048,-0.04,1003.,0.390,0.340,0.134,0.995,16",1000.0,1000.0,1029.0,1062.0,0.0,0.0,0.0,0.0
9186.37355,0.0042857142857143215,-0.8960432623242495,-0.1530725812223892,0.05143944758331465,[-1.],0.04,-0.01,-1.03,-1,"4.412,0.048,-0.04,1003.,0.39,0.340,0.134,0.995,16",1000.0,1000.0,1029.0,1062.0,0.0,0.0,0.0,0.0
9284.44205,0.0042857142857143215,-0.8960432623242495,-0.1530725812223892,0.05143944758331465,[-1.],0.05,-0.02,-1.02,-1,"4.412,0.047,-0.04,1003.,0.390,0.340,0.134,0.995,16",1000.0,1000.0,1028.0,1062.0,0.0,0.0,0.0,0.0
9386.506828,0.0042857142857143215,-0.873742826599769,-0.15363339509752816,0.04972724168405156,[-1.],0.05,-0.02,-1.02,-1,"4.412,0.048,-0.04,1003.,0.390,0.340,0.134,0.995,16",1000.0,1000.0,1027.0,1063.0,0.0,0.0,0.0,0.0
9585.856995,0.0042857142857143215,-0.873742826599769,-0.15363339509752816,0.04972724168405156,[-1.],0.05,-0.02,-1.01,-1,"4.412,0.047,-0.04,1003.,0.390,0.340,0.135,0.995,16",1000.0,1000.0,1028.0,1062.0,0.0,0.0,0.0,0.0
9786.077569,0.0042857142857143215,-0.873742826599769,-0.15363339509752816,0.04972724168405156,[-1.],0.06,-0.0,-1.03,-1,"4.412,0.047,-0.04,1003.,0.390,0.340,0.134,0.995,16",1000.0,1000.0,1028.0,1061.0,0.0,0.0,0.0,0.0
9972.288494,0.0042857142857143215,-0.8515548351706761,-0.15417247630032138,0.04801746345917493,[-1.],0.03,-0.01,-1.01,-1,"4.412,0.047,-0.04,1003.,0.390,0.340,0.134,0.995,16",1000.0,1000.0,1029.0,1060.0,0.0,0.0,0.0,0.0
10142.55492,0.0042857142857143215,-0.827825568436249,-0.1363517799451026,0.038086959770822056,[-1.],0.04,0.0,-1.02,-1,"4.412,0.048,-0.04,1003.,0.390,0.340,0.134,0.995,16",1000.0,1000.0,1027.0,1060.0,0.0,0.0,0.0,0.0
10174.545346,0.0042857142857143215,-0.8058953741996212,-0.13675932548420566,0.03658778910291859,[-1.],0.04,-0.01,-1.02,-1,"4.412,0.047,-0.04,1003.,0.39,0.340,0.134,0.995,16",1000.0,1000.0,1029.0,1059.0,0.0,0.0,0.0,0.0
10199.164828,0.0042857142857143215,-0.8058953741996212,-0.13675932548420566,0.03658778910291859,[-1.],0.05,-0.0,-1.02,-1,"4.412,0.047,-0.04,1003.,0.390,0.340,0.134,0.995,16",1000.0,1000.0,1028.0,1059.0,0.0,0.0,0.0,0.0
10229.688068,0.0042857142857143215,-0.8058953741996212,-0.13675932548420566,0.03658778910291859,[-1.],0.04,-0.01,-1.02,-1,"4.412,0.047,-0.04,1003.,0.39,0.340,0.134,0.995,16",1000.0,1000.0,1029.0,1059.0,0.0,0.0,0.0,0.0
10402.742809,0.014285714285714322,-0.7840652206163248,-0.13714872160103986,0.03509104831954965,[-1.],0.05,-0.01,-1.01,-1,"4.861,0.047,-0.04,1012.,0.39,0.341,0.134,0.995,16",1000.0,1000.0,1027.0,1059.0,0.0,0.0,0.0,0.0
10544.64342,0.014285714285714322,-0.7840652206163248,-0.13714872160103986,0.03509104831954965,[-1.],0.04,-0.0,-1.02,-1,"4.636,0.047,-0.04,1012.,0.390,0.340,0.134,0.995,16",1000.0,1000.0,1027.0,1059.0,0.0,0.0,0.0,0.0
10603.720679,0.01785714285714284,-0.7840652206163248,-0.13714872160103986,0.03509104831954965,[-1.],0.06,-0.01,-1.01,-1,"4.337,0.048,-0.04,1016.,0.39,0.340,0.134,0.995,16",1000.0,1000.0,1028.0,1058.0,0.0,0.0,0.0,0.0
10646.909661,0.018571428571428517,-0.7623312364536599,-0.1375202116780494,0.03359670977822996,[-1.],0.03,-0.01,-1.01,-1,"4.337,0.047,-0.04,1016.,0.39,0.340,0.134,0.995,16",1000.0,1000.0,1035.0,1068.0,0.0,0.0,0.0,0.0
10678.261327,0.019285714285714323,-0.7623312364536599,-0.1375202116780494,0.03359670977822996,[-1.],0.04,-0.0,-1.02,-1,"4.337,0.047,-0.04,1017.,0.39,0.340,0.134,0.995,16",1000.0,1000.0,1037.0,1066.0,0.0,0.0,0.0,0.0
10742.272531,0.055,-0.7623312364536599,-0.1375202116780494,0.03359670977822996,[-1.],0.04,-0.01,-1.03,-1,"4.412,0.048,-0.04,1049.,0.39,0.340,0.134,0.995,16",1000.0,1000.0,1040.0,1072.0,0.0,0.0,0.0,0.0
10776.514698,0.052857142857142964,-0.7623312364536599,-0.1375202116780494,0.03359670977822996,[-1.],0.05,-0.0,-1.02,-1,"4.412,0.048,-0.04,1047.,0.39,0.340,0.134,0.995,16",1000.0,1000.0,1041.0,1069.0,0.0,0.0,0.0,0.0
10861.044179,0.053571428571428645,-0.7623312364536599,-0.1375202116780494,0.03359670977822996,[-1.],0.04,-0.0,-1.02,-1,"4.337,0.048,-0.04,1048.,0.390,0.340,0.134,0.995,16",1000.0,1000.0,1045.0,1067.0,0.0,0.0,0.0,0.0
10963.102938,0.052857142857142964,-0.7406896811267332,-0.13787402756917366,0.03210474742621427,[-1.],0.04,-0.0,-1.02,-1,"4.412,0.047,-0.04,1047.,0.39,0.340,0.134,0.995,16",1028.0,1000.0,1075.0,1101.0,0.0,0.0,0.0,0.0
11008.061605,0.053571428571428645,-0.7406896811267332,-0.13787402756917366,0.03210474742621427,[-1.],0.07,0.07,-1.01,-1,"4.412,0.047,-0.04,1048.,0.390,0.340,0.134,0.995,16",1027.0,1000.0,1071.0,1102.0,0.0,0.0,0.0,0.0
11030.337049,0.053571428571428645,-0.7406896811267332,-0.13787402756917366,0.03210474742621427,[-1.],0.09,-0.01,-1.0,-1,"4.412,0.047,-0.04,1048.,0.390,0.340,0.134,0.995,16",1032.0,1000.0,1071.0,1102.0,0.0,0.0,0.0,0.0
11095.581475,0.053571428571428645,-0.7406896811267332,-0.13787402756917366,0.03210474742621427,[-1.],0.0,-0.02,-1.04,-1,"4.412,0.047,-0.04,1048.,0.390,0.34,0.134,0.995,16",1021.0,1000.0,1075.0,1095.0,0.0,0.0,0.0,0.0
11147.447679,0.053571428571428645,-0.7406896811267332,-0.13787402756917366,0.03210474742621427,[-1.],0.06,0.01,-1.02,-1,"4.412,0.048,-0.04,1048.,0.39,0.340,0.134,0.995,16",1027.0,1000.0,1074.0,1101.0,0.0,0.0,0.0,0.0
11264.367716,0.053571428571428645,-0.7191369368389867,-0.13821039016385805,0.03061513672147211,[-1.],0.08,-0.02,-1.03,-1,"4.412,0.047,-0.04,1048.,0.39,0.340,0.134,0.995,16",1033.0,1000.0,1069.0,1105.0,0.0,0.0,0.0,0.0
11324.219531,0.053571428571428645,-0.7191369368389867,-0.13821039016385805,0.03061513672147211,[-1.],0.07,-0.0,-1.02,-1,"4.412,0.048,-0.04,1048.,0.390,0.340,0.133,0.995,16",1033.0,1000.0,1068.0,1103.0,0.0,0.0,0.0,0.0
11368.826031,0.053571428571428645,-0.7191369368389867,-0.13821039016385805,0.03061513672147211,[-1.],0.03,0.0,-1.02,-1,"4.412,0.048,-0.04,1048.,0.390,0.340,0.133,0.995,16",1023.0,1000.0,1078.0,1096.0,0.0,0.0,0.0,0.0
11438.802605,0.053571428571428645,-0.7191369368389867,-0.13821039016385805,0.03061513672147211,[-1.],0.04,-0.01,-1.04,-1,"4.412,0.048,-0.04,1048.,0.39,0.340,0.134,0.995,16",1035.0,1000.0,1066.0,1105.0,0.0,0.0,0.0,0.0
11554.428697,0.053571428571428645,-0.7191369368389867,-0.13821039016385805,0.03061513672147211,[-1.],0.06,-0.0,-1.01,-1,"4.337,0.047,-0.04,1048.,0.390,0.340,0.134,0.995,16",1035.0,1000.0,1065.0,1106.0,0.0,0.0,0.0,0.0
11673.131216,0.055,-0.6976695012473403,-0.13852950991067603,0.029127854559325185,[-1.],0.04,-0.02,-1.01,-1,"4.337,0.048,-0.04,1049.,0.390,0.340,0.134,0.995,16",1027.0,1000.0,1073.0,1098.0,0.0,0.0,0.0,0.0
11736.071141,0.055,-0.6976695012473403,-0.13852950991067603,0.029127854559325185,[-1.],0.06,0.01,-1.0,-1,"4.412,0.048,-0.04,1049.,0.390,0.340,0.134,0.995,16",1037.0,1000.0,1065.0,1106.0,0.0,0.0,0.0,0.0
11798.85729,0.08142857142857135,-0.6976695012473403,-0.13852950991067603,0.029127854559325185,[-1.],0.03,-0.03,-1.02,-1,"4.412,0.047,-0.04,1073.,0.390,0.340,0.134,0.995,16",1031.0,1000.0,1070.0,1100.0,0.0,0.0,0.0,0.0
11865.946364,0.08142857142857135,-0.676283980607198,-0.13883158730384104,0.02764287920428809,[-1.],0.06,-0.01,-1.0,-1,"4.412,0.047,-0.04,1073.,0.390,0.340,0.134,0.995,16",1033.0,1000.0,1071.0,1102.0,0.0,0.0,0.0,0.0
11911.893456,0.08071428571428568,-0.676283980607198,-0.13883158730384104,0.02764287920428809,[-1.],0.02,0.0,-1.03,-1,"4.412,0.047,-0.04,1072.,0.390,0.340,0.134,0.995,16",1026.0,1000.0,1077.0,1096.0,0.0,0.0,0.0,0.0
11943.648734,0.08214285714285703,-0.676283980607198,-0.13883158730384104,0.02764287920428809,[-1.],0.03,-0.03,-1.02,-1,"4.412,0.048,-0.04,1073.,0.390,0.340,0.134,0.995,16",1054.0,1015.0,1098.0,1123.0,0.0,0.0,0.0,0.0
11983.861938,0.08142857142857135,-0.676283980607198,-0.13883158730384104,0.02764287920428809,[-1.],0.08,0.05,-1.0,-1,"4.412,0.048,-0.04,1073.,0.390,0.340,0.134,0.995,16",1073.0,1002.0,1080.0,1135.0,0.0,0.0,0.0,0.0
12107.301197,0.08142857142857135,-0.676283980607198,-0.13883158730384104,0.02764287920428809,[-1.],0.09,0.02,-1.15,-1,"4.412,0.048,-0.04,1073.,0.390,0.340,0.134,0.995,16",1054.0,1010.0,1095.0,1127.0,0.0,0.0,0.0,0.0
12241.440271,0.08142857142857135,-0.676283980607198,-0.13883158730384104,0.02764287920428809,[-1.],-0.05,-0.04,-1.02,-1,"4.337,0.047,-0.04,1073.,0.390,0.340,0.134,0.995,16",1035.0,1027.0,1119.0,1109.0,0.0,0.0,0.0,0.0
12276.787993,0.08142857142857135,-0.6538931864273692,-0.12014437416003698,0.0196335266400508,[-1.],0.08,-0.03,-1.1,-1,"4.337,0.047,-0.04,1073.,0.39,0.340,0.134,0.995,16",1057.0,1009.0,1096.0,1128.0,0.0,0.0,0.0,0.0
12325.491345,0.08142857142857135,-0.6538931864273692,-0.12014437416003698,0.0196335266400508,[-1.],-0.05,-0.09,-1.08,-1,"4.412,0.047,-0.04,1073.,0.390,0.340,0.134,0.995,16",1049.0,1027.0,1098.0,1115.0,0.0,0.0,0.0,0.0
12361.297919,0.08214285714285703,-0.6538931864273692,-0.12014437416003698,0.0196335266400508,[-1.],0.07,-0.06,-1.07,-1,"4.337,0.047,-0.04,1073.,0.39,0.34,0.134,0.995,16",1064.0,1006.0,1092.0,1129.0,0.0,0.0,0.0,0.0
12403.1469,0.08214285714285703,-0.6538931864273692,-0.12014437416003698,0.0196335266400508,[-1.],0.01,-0.03,-1.04,-1,"4.412,0.048,-0.04,1073.,0.390,0.340,0.134,0.995,16",1061.0,1013.0,1091.0,1125.0,0.0,0.0,0.0,0.0
12534.916604,0.08142857142857135,-0.6548788812990217,-0.11370675290273335,0.03865921439113616,[-1.],0.04,0.04,-0.97,-1,"4.337,0.048,-0.04,1073.,0.390,0.340,0.134,0.995,16",1059.0,1013.0,1098.0,1121.0,0.0,0.0,0.0,0.0
12650.520659,0.08214285714285703,-0.633702563862073,-0.11410843597273934,0.03745226152482712,[-1.],0.07,0.03,-1.03,-1,"4.262,0.048,-0.04,1073.,0.39,0.340,0.134,0.995,16",1056.0,1015.0,1096.0,1124.0,0.0,0.0,0.0,0.0
12798.233696,0.08285714285714296,-0.633702563862073,-0.11410843597273934,0.03745226152482712,[-1.],0.1,-0.03,-1.02,-1,"4.188,0.047,-0.04,1074.,0.390,0.340,0.134,0.995,16",1061.0,1009.0,1096.0,1124.0,0.0,0.0,0.0,0.0
12906.222678,0.13571428571428568,-0.633702563862073,-0.11410843597273934,0.03745226152482712,[-1.],0.03,-0.01,-1.04,-1,"4.412,0.047,-0.04,1122.,0.390,0.340,0.134,0.995,16",1057.0,1013.0,1095.0,1125.0,0.0,0.0,0.0,0.0
12950.058122,0.135,-0.6125980855493341,-0.1144960477024679,0.03624519948159257,[-1.],0.02,0.04,-0.99,-1,"4.487,0.047,-0.04,1121.,0.39,0.340,0.134,0.995,16",1063.0,1012.0,1093.0,1122.0,0.0,0.0,0.0,0.0
13012.0789,0.135,-0.6125980855493341,-0.1144960477024679,0.03624519948159257,[-1.],0.06,-0.01,-1.03,-1,"4.412,0.048,-0.04,1121.,0.390,0.340,0.134,0.995,16",1057.0,1020.0,1099.0,1119.0,0.0,0.0,0.0,0.0
13054.983752,0.135,-0.6125980855493341,-0.1144960477024679,0.03624519948159257,[-1.],0.08,0.04,-1.06,-1,"4.337,0.047,-0.04,1121.,0.390,0.340,0.134,0.995,16",1106.0,1066.0,1147.0,1167.0,0.0,0.0,0.0,0.0
13092.306085,0.135,-0.6125980855493341,-0.1144960477024679,0.03624519948159257,[-1.],0.04,-0.01,-1.0,-1,"4.262,0.047,-0.04,1121.,0.390,0.340,0.134,0.995,16",1121.0,1048.0,1133.0,1179.0,0.0,0.0,0.0,0.0
13145.776918,0.135,-0.6125980855493341,-0.1144960477024679,0.03624519948159257,[-1.],0.11,-0.08,-1.07,-1,"4.337,0.047,-0.04,1121.,0.390,0.340,0.134,0.995,16",1106.0,1060.0,1144.0,1171.0,0.0,0.0,0.0,0.0
13174.076733,0.135,-0.6125980855493341,-0.1144960477024679,0.03624519948159257,[-1.],0.03,0.12,-0.89,-1,"4.337,0.047,-0.04,1121.,0.390,0.340,0.134,0.995,16",1112.0,1060.0,1140.0,1170.0,0.0,0.0,0.0,0.0
13216.645992,0.13571428571428568,-0.5915624249450754,-0.11486972829160602,0.03503803176446108,[-1.],-0.09,-0.01,-1.02,-1,"4.262,0.048,-0.04,1122.,0.390,0.340,0.133,0.995,16",1100.0,1072.0,1149.0,1161.0,0.0,0.0,0.0,0.0
13265.434955,0.135,-0.5915624249450754,-0.11486972829160602,0.03503803176446108,[-1.],-0.02,0.11,-0.95,-1,"4.337,0.048,-0.04,1121.,0.390,0.340,0.134,0.995,16",1118.0,1061.0,1134.0,1168.0,0.0,0.0,0.0,0.0
13302.686659,0.13571428571428568,-0.5915624249450754,-0.11486972829160602,0.03503803176446108,[-1.],0.17,-0.03,-1.08,-1,"4.337,0.047,-0.04,1122.,0.39,0.340,0.134,0.995,16",1112.0,1053.0,1140.0,1177.0,0.0,0.0,0.0,0.0
13344.993696,0.13714285714285704,-0.5915624249450754,-0.11486972829160602,0.03503803176446108,[-1.],0.09,-0.13,-1.06,-1,"4.337,0.048,-0.04,1123.,0.39,0.340,0.134,0.995,16",1085.0,1076.0,1165.0,1159.0,0.0,0.0,0.0,0.0
13399.249196,0.13714285714285704,-0.5915624249450754,-0.11486972829160602,0.03503803176446108,[-1.],0.08,-0.14,-1.14,-1,"4.337,0.048,-0.04,1123.,0.390,0.340,0.134,0.995,16",1117.0,1050.0,1136.0,1179.0,0.0,0.0,0.0,0.0
13454.582844,0.13714285714285704,-0.5915624249450754,-0.11486972829160602,0.03503803176446108,[-1.],-0.07,-0.0,-0.98,-1,"4.337,0.048,-0.04,1123.,0.39,0.340,0.134,0.995,16",1092.0,1085.0,1159.0,1150.0,0.0,0.0,0.0,0.0
13548.985437,0.13642857142857134,-0.5915624249450754,-0.11486972829160602,0.03503803176446108,[-1.],-0.05,-0.12,-1.02,-1,"4.262,0.047,-0.04,1122.,0.390,0.340,0.134,0.995,16",1094.0,1076.0,1155.0,1164.0,0.0,0.0,0.0,0.0
13733.600048,0.13642857142857134,-0.5915624249450754,-0.11486972829160602,0.03503803176446108,[-1.],0.06,-0.14,-1.06,-1,"4.188,0.047,-0.04,1122.,0.390,0.340,0.134,0.995,16",1099.0,1067.0,1154.0,1170.0,0.0,0.0,0.0,0.0
13934.95227,0.13714285714285704,-0.5705926406981214,-0.11522961110725616,0.03383076187830653,[-1.],-0.0,-0.09,-1.01,-1,"4.262,0.048,-0.04,1123.,0.390,0.340,0.134,0.995,16",1100.0,1071.0,1152.0,1167.0,0.0,0.0,0.0,0.0
14090.332196,0.13714285714285704,-0.5705926406981214,-0.11522961110725616,0.03383076187830653,[-1.],0.12,-0.09,-1.08,-1,"4.188,0.048,-0.04,1123.,0.390,0.340,0.134,0.995,16",1118.0,1049.0,1137.0,1183.0,0.0,0.0,0.0,0.0
14143.875214,0.13642857142857134,-0.5705926406981214,-0.11522961110725616,0.03383076187830653,[-1.],0.16,-0.05,-1.05,-1,"4.188,0.047,-0.04,1122.,0.39,0.340,0.134,0.995,16",1113.0,1057.0,1145.0,1172.0,0.0,0.0,0.0,0.0
14228.11127,0.13714285714285704,-0.5496858668311396,-0.11557582295446767,0.03262339332978736,[-1.],0.1,0.04,-1.05,-1,"4.337,0.048,-0.04,1123.,0.390,0.340,0.134,0.995,16",1125.0,1049.0,1136.0,1180.0,0.0,0.0,0.0,0.0
14275.589788,0.13714285714285704,-0.5496858668311396,-0.11557582295446767,0.03262339332978736,[-1.],0.04,-0.08,-1.01,-1,"4.262,0.047,-0.04,1123.,0.390,0.340,0.134,0.995,16",1090.0,1080.0,1166.0,1154.0,0.0,0.0,0.0,0.0
14454.596751,0.13714285714285704,-0.5496858668311396,-0.11557582295446767,0.03262339332978736,[-1.],-0.02,0.05,-0.98,-1,"4.188,0.047,-0.04,1123.,0.390,0.340,0.134,0.995,16",1106.0,1075.0,1146.0,1158.0,0.0,0.0,0.0,0.0
14534.057288,0.13714285714285704,-0.5496858668311396,-0.11557582295446767,0.03262339332978736,[-1.],0.06,-0.17,-1.12,-1,"4.188,0.047,-0.04,1123.,0.390,0.340,0.134,0.995,16",1091.0,1075.0,1163.0,1161.0,0.0,0.0,0.0,0.0
14576.92501,0.1378571428571427,-0.5288393083129268,-0.11590848432844991,0.0314159296272858,[-1.],0.01,0.06,-0.96,-1,"4.262,0.048,-0.04,1124.,0.390,0.340,0.134,0.995,16",1097.0,1079.0,1161.0,1153.0,0.0,0.0,0.0,0.0
14603.134566,0.13714285714285704,-0.5288393083129268,-0.11590848432844991,0.0314159296272858,[-1.],0.12,-0.09,-1.09,-1,"4.262,0.047,-0.04,1123.,0.39,0.340,0.134,0.995,16",1115.0,1059.0,1141.0,1175.0,0.0,0.0,0.0,0.0
14635.97588,0.1378571428571427,-0.5288393083129268,-0.11590848432844991,0.0314159296272858,[-1.],-0.02,0.15,-0.95,-1,"4.262,0.048,-0.04,1124.,0.390,0.340,0.134,0.995,16",1106.0,1075.0,1152.0,1157.0,0.0,0.0,0.0,0.0
14659.817343,0.13714285714285704,-0.5288393083129268,-0.11590848432844991,0.0314159296272858,[-1.],0.15,0.05,-1.08,-1,"4.188,0.047,-0.04,1123.,0.39,0.340,0.135,0.995,16",1129.0,1049.0,1130.0,1185.0,0.0,0.0,0.0,0.0
14678.583769,0.1378571428571427,-0.5288393083129268,-0.11590848432844991,0.0314159296272858,[-1.],0.12,-0.03,-1.06,-1,"4.188,0.047,-0.04,1124.,0.39,0.340,0.134,0.995,16",1119.0,1054.0,1140.0,1177.0,0.0,0.0,0.0,0.0
14700.550417,0.1378571428571427,-0.5288393083129268,-0.11590848432844991,0.0314159296272858,[-1.],0.12,0.06,-1.03,-1,"4.262,0.048,-0.04,1124.,0.390,0.340,0.134,0.995,16",1126.0,1054.0,1137.0,1178.0,0.0,0.0,0.0,0.0
14733.647621,0.1378571428571427,-0.5288393083129268,-0.11590848432844991,0.0314159296272858,[-1.],-0.04,-0.06,-0.93,-1,"4.262,0.048,-0.04,1124.,0.390,0.340,0.134,0.995,16",1093.0,1086.0,1160.0,1151.0,0.0,0.0,0.0,0.0
14756.03588,0.13714285714285704,-0.5288393083129268,-0.11590848432844991,0.0314159296272858,[-1.],0.08,-0.12,-1.06,-1,"4.188,0.047,-0.04,1123.,0.39,0.340,0.134,0.995,16",1095.0,1076.0,1162.0,1160.0,0.0,0.0,0.0,0.0
14803.797603,0.1378571428571427,-0.5288393083129268,-0.11590848432844991,0.0314159296272858,[-1.],0.09,-0.1,-1.09,-1,"4.262,0.048,-0.04,1124.,0.390,0.340,0.134,0.995,16",1112.0,1060.0,1145.0,1176.0,0.0,0.0,0.0,0.0
14831.786769,0.13714285714285704,-0.5288393083129268,-0.11590848432844991,0.0314159296272858,[-1.],0.07,0.08,-0.97,-1,"4.188,0.047,-0.04,1123.,0.39,0.340,0.134,0.995,16",1126.0,1054.0,1138.0,1176.0,0.0,0.0,0.0,0.0
14858.037436,0.1378571428571427,-0.5288393083129268,-0.11590848432844991,0.0314159296272858,[-1.],0.13,-0.05,-1.11,-1,"4.188,0.047,-0.04,1124.,0.39,0.340,0.134,0.995,16",1121.0,1056.0,1138.0,1174.0,0.0,0.0,0.0,0.0
14884.561769,0.1378571428571427,-0.5288393083129268,-0.11590848432844991,0.0314159296272858,[-1.],0.06,-0.12,-1.05,-1,"4.262,0.048,-0.04,1124.,0.390,0.340,0.134,0.995,16",1120.0,1057.0,1139.0,1178.0,0.0,0.0,0.0,0.0
14917.198399,0.1378571428571427,-0.5080502368729151,-0.11622770964973239,0.030208374280846943,[-1.],-0.04,0.03,-1.0,-1,"4.262,0.048,-0.04,1124.,0.39,0.340,0.134,0.995,16",1101.0,1081.0,1160.0,1149.0,0.0,0.0,0.0,0.0
14971.165232,0.1378571428571427,-0.5080502368729151,-0.11622770964973239,0.030208374280846943,[-1.],0.08,-0.13,-1.06,-1,"4.262,0.048,-0.04,1124.,0.39,0.340,0.134,0.995,16",1105.0,1073.0,1153.0,1163.0,0.0,0.0,0.0,0.0
15007.48688,0.1378571428571427,-0.5080502368729151,-0.11622770964973239,0.030208374280846943,[-1.],0.01,-0.16,-1.07,-1,"4.188,0.048,-0.04,1124.,0.39,0.340,0.134,0.995,16",1100.0,1073.0,1155.0,1166.0,0.0,0.0,0.0,0.0
15026.040065,0.1378571428571427,-0.5080502368729151,-0.11622770964973239,0.030208374280846943,[-1.],0.13,-0.01,-1.07,-1,"4.188,0.048,-0.04,1124.,0.390,0.340,0.134,0.995,16",1114.0,1059.0,1149.0,1172.0,0.0,0.0,0.0,0.0
15058.92901,0.13714285714285704,-0.5080502368729151,-0.11622770964973239,0.030208374280846943,[-1.],0.04,-0.06,-1.01,-1,"4.262,0.048,-0.04,1123.,0.390,0.340,0.134,0.995,16",1094.0,1083.0,1161.0,1156.0,0.0,0.0,0.0,0.0
15078.180917,0.13714285714285704,-0.5080502368729151,-0.11622770964973239,0.030208374280846943,[-1.],-0.0,0.04,-1.0,-1,"4.262,0.048,-0.04,1123.,0.390,0.340,0.134,0.995,16",1114.0,1070.0,1143.0,1167.0,0.0,0.0,0.0,0.0
15121.404769,0.1378571428571427,-0.5080502368729151,-0.11622770964973239,0.030208374280846943,[-1.],0.17,-0.05,-1.08,-1,"4.188,0.047,-0.04,1124.,0.390,0.340,0.134,0.995,16",1119.0,1056.0,1142.0,1177.0,0.0,0.0,0.0,0.0
15145.482195,0.13857142857142865,-0.5080502368729151,-0.11622770964973239,0.030208374280846943,[-1.],0.1,-0.11,-1.06,-1,"4.262,0.048,-0.04,1124.,0.39,0.340,0.134,0.995,16",1105.0,1063.0,1154.0,1168.0,0.0,0.0,0.0,0.0
15207.858399,0.13857142857142865,-0.5080502368729151,-0.11622770964973239,0.030208374280846943,[-1.],0.13,-0.02,-1.13,-1,"4.188,0.049,-0.04,1124.,0.390,0.340,0.134,0.995,16",1119.0,1055.0,1140.0,1176.0,0.0,0.0,0.0,0.0
15299.946676,0.13857142857142865,-0.5080502368729151,-0.11622770964973239,0.030208374280846943,[-1.],0.04,0.04,-1.0,-1,"4.188,0.047,-0.04,1124.,0.390,0.340,0.134,0.995,16",1126.0,1057.0,1133.0,1178.0,0.0,0.0,0.0,0.0
15362.442565,0.13857142857142865,-0.5080502368729151,-0.11622770964973239,0.030208374280846943,[-1.],0.0,0.06,-0.95,-1,"4.262,0.048,-0.04,1124.,0.39,0.340,0.134,0.995,16",1103.0,1080.0,1156.0,1155.0,0.0,0.0,0.0,0.0
15412.554547,0.13714285714285704,-0.5080502368729151,-0.11622770964973239,0.030208374280846943,[-1.],0.06,0.1,-0.99,-1,"4.262,0.048,-0.04,1123.,0.390,0.340,0.134,0.995,16",1124.0,1060.0,1140.0,1170.0,0.0,0.0,0.0,0.0
15471.279213,0.1378571428571427,-0.4873159870388556,-0.11653360748343022,0.029000730802117767,[-1.],0.14,0.05,-1.05,-1,"4.262,0.047,-0.04,1124.,0.390,0.340,0.134,0.995,16",1127.0,1053.0,1132.0,1181.0,0.0,0.0,0.0,0.0
15493.796806,0.1378571428571427,-0.48652276855593174,-0.09710095559347676,0.024115926830335727,[-1.],0.07,0.06,-1.05,-1,"4.337,0.048,-0.04,1124.,0.39,0.340,0.134,0.995,16",1131.0,1053.0,1134.0,1176.0,0.0,0.0,0.0,0.0
15516.978584,0.1378571428571427,-0.48652276855593174,-0.09710095559347676,0.024115926830335727,[-1.],0.07,-0.13,-1.12,-1,"4.262,0.048,-0.04,1124.,0.39,0.340,0.134,0.995,16",1109.0,1064.0,1145.0,1172.0,0.0,0.0,0.0,0.0
15555.024695,0.1378571428571427,-0.4873159870388556,-0.11653360748343022,0.029000730802117767,[-1.],0.05,0.06,-1.02,-1,"4.262,0.048,-0.04,1124.,0.390,0.340,0.134,0.995,16",1129.0,1057.0,1134.0,1174.0,0.0,0.0,0.0,0.0
15613.658269,0.1378571428571427,-0.48652276855593174,-0.09710095559347676,0.024115926830335727,[-1.],-0.0,-0.05,-0.94,-1,"4.262,0.047,-0.04,1124.,0.390,0.340,0.134,0.995,16",1095.0,1086.0,1160.0,1152.0,0.0,0.0,0.0,0.0
15651.258695,0.1378571428571427,-0.48652276855593174,-0.09710095559347676,0.024115926830335727,[-1.],0.06,-0.14,-1.1,-1,"4.262,0.047,-0.04,1124.,0.390,0.340,0.134,0.995,16",1112.0,1064.0,1144.0,1174.0,0.0,0.0,0.0,0.0
15685.242195,0.13857142857142865,-0.4873159870388556,-0.11653360748343022,0.029000730802117767,[-1.],0.11,0.01,-1.06,-1,"4.337,0.048,-0.04,1124.,0.390,0.340,0.134,0.995,16",1128.0,1053.0,1135.0,1178.0,0.0,0.0,0.0,0.0
15711.479602,0.13857142857142865,-0.48652276855593174,-0.09710095559347676,0.024115926830335727,[-1.],0.01,0.05,-1.02,-1,"4.262,0.047,-0.04,1124.,0.390,0.340,0.134,0.995,16",1126.0,1063.0,1133.0,1172.0,0.0,0.0,0.0,0.0
15735.004602,0.13857142857142865,-0.48652276855593174,-0.09710095559347676,0.024115926830335727,[-1.],-0.03,0.02,-1.0,-1,"4.337,0.048,-0.04,1124.,0.390,0.340,0.134,0.995,16",1109.0,1078.0,1149.0,1158.0,0.0,0.0,0.0,0.0
15754.204546,0.13857142857142865,-0.4873159870388556,-0.11653360748343022,0.029000730802117767,[-1.],0.11,-0.06,-1.04,-1,"4.337,0.048,-0.04,1124.,0.390,0.340,0.134,0.995,16",1121.0,1055.0,1141.0,1177.0,0.0,0.0,0.0,0.0
15794.487028,0.13857142857142865,-0.4873159870388556,-0.11653360748343022,0.029000730802117767,[-1.],0.03,0.07,-1.01,-1,"4.412,0.047,-0.04,1124.,0.39,0.34,0.134,0.995,16",1126.0,1060.0,1136.0,1171.0,0.0,0.0,0.0,0.0
15837.546991,0.13928571428571432,-0.48652276855593174,-0.09710095559347676,0.024115926830335727,[-1.],0.06,-0.01,-0.97,-1,"4.412,0.048,-0.04,1125.,0.390,0.34,0.134,0.995,16",1111.0,1069.0,1148.0,1166.0,0.0,0.0,0.0,0.0
15878.081083,0.13928571428571432,-0.4873159870388556,-0.11653360748343022,0.029000730802117767,[-1.],0.05,-0.17,-1.07,-1,"4.412,0.048,-0.04,1125.,0.39,0.34,0.134,0.995,16",1106.0,1069.0,1152.0,1166.0,0.0,0.0,0.0,0.0
15960.59938,0.13857142857142865,-0.46663395238021227,-0.11682628074366841,0.027793002704286116,[-1.],-0.03,0.03,-0.98,-1,"4.412,0.047,-0.04,1124.,0.390,0.340,0.134,0.995,16",1102.0,1083.0,1156.0,1153.0,0.0,0.0,0.0,0.0
16044.378935,0.13928571428571432,-0.46663395238021227,-0.11682628074366841,0.027793002704286116,[-1.],0.07,-0.13,-1.1,-1,"4.337,0.048,-0.04,1125.,0.39,0.340,0.134,0.995,16",1113.0,1065.0,1147.0,1174.0,0.0,0.0,0.0,0.0
16109.839583,0.13928571428571432,-0.46663395238021227,-0.11682628074366841,0.027793002704286116,[-1.],-0.02,-0.05,-0.99,-1,"4.188,0.048,-0.04,1125.,0.390,0.340,0.134,0.995,16",1095.0,1085.0,1164.0,1154.0,0.0,0.0,0.0,0.0
16165.856102,0.14071428571428568,-0.4658731591177927,-0.09734419889822377,0.023111462093757865,[-1.],-0.06,-0.04,-0.98,-1,"4.188,0.047,-0.04,1126.,0.390,0.340,0.134,0.995,16",1107.0,1079.0,1152.0,1157.0,0.0,0.0,0.0,0.0
16250.453213,0.14,-0.46663395238021227,-0.11682628074366841,0.027793002704286116,[-1.],0.01,0.04,-1.0,-1,"4.188,0.047,-0.04,1126.,0.39,0.34,0.134,0.995,16",1127.0,1060.0,1134.0,1177.0,0.0,0.0,0.0,0.0
16439.250824,0.14,-0.46663395238021227,-0.11682628074366841,0.027793002704286116,[-1.],0.03,0.12,-0.99,-1,"4.262,0.048,-0.04,1126.,0.390,0.340,0.134,0.995,16",1122.0,1062.0,1145.0,1168.0,0.0,0.0,0.0,0.0
16588.054713,0.14071428571428568,-0.4658731591177927,-0.09734419889822377,0.023111462093757865,[-1.],0.02,-0.04,-0.97,-1,"4.337,0.048,-0.04,1126.,0.39,0.340,0.134,0.995,16",1094.0,1088.0,1168.0,1153.0,0.0,0.0,0.0,0.0
16666.655713,0.14142857142857135,-0.4452732920641258,-0.09757653039236303,0.022106950710132304,[-1.],0.03,-0.04,-1.03,-1,"4.337,0.048,-0.04,1127.,0.390,0.340,0.134,0.995,16",1105.0,1076.0,1158.0,1162.0,0.0,0.0,0.0,0.0
16807.195361,0.14071428571428568,-0.4452732920641258,-0.09757653039236303,0.022106950710132304,[-1.],0.18,-0.05,-1.12,-1,"4.337,0.047,-0.04,1126.,0.390,0.340,0.134,0.995,16",1111.0,1068.0,1154.0,1169.0,0.0,0.0,0.0,0.0
16898.115212,0.14,-0.4452732920641258,-0.09757653039236303,0.022106950710132304,[-1.],0.02,-0.06,-0.98,-1,"4.262,0.047,-0.04,1126.,0.390,0.340,0.134,0.995,16",1097.0,1087.0,1164.0,1154.0,0.0,0.0,0.0,0.0
17053.975601,0.14071428571428568,-0.4452732920641258,-0.09757653039236303,0.022106950710132304,[-1.],0.1,-0.0,-1.14,-1,"4.262,0.047,-0.04,1126.,0.39,0.340,0.135,0.995,16",1126.0,1063.0,1144.0,1174.0,0.0,0.0,0.0,0.0
17079.994953,0.14142857142857135,-0.4452732920641258,-0.09757653039236303,0.022106950710132304,[-1.],-0.01,-0.01,-0.92,-1,"4.262,0.047,-0.04,1127.,0.390,0.340,0.134,0.995,16",1104.0,1082.0,1157.0,1158.0,0.0,0.0,0.0,0.0
17146.210583,0.14142857142857135,-0.42472066551916576,-0.09779802690918737,0.02110239470353729,[-1.],0.07,0.01,-0.99,-1,"4.262,0.047,-0.04,1127.,0.390,0.340,0.134,0.995,16",1112.0,1072.0,1152.0,1166.0,0.0,0.0,0.0,0.0
17226.529972,0.14142857142857135,-0.42472066551916576,-0.09779802690918737,0.02110239470353729,[-1.],0.07,-0.16,-1.1,-1,"4.337,0.048,-0.04,1127.,0.390,0.340,0.134,0.995,16",1109.0,1071.0,1156.0,1166.0,0.0,0.0,0.0,0.0
17288.490842,0.14071428571428568,-0.42472066551916576,-0.09779802690918737,0.02110239470353729,[-1.],0.07,0.1,-0.97,-1,"4.262,0.047,-0.04,1126.,0.390,0.340,0.134,0.995,16",1134.0,1058.0,1134.0,1180.0,0.0,0.0,0.0,0.0
17358.48849,0.14071428571428568,-0.42472066551916576,-0.09779802690918737,0.02110239470353729,[-1.],-0.07,-0.0,-0.95,-1,"4.337,0.048,-0.04,1126.,0.390,0.340,0.134,0.995,16",1109.0,1085.0,1154.0,1159.0,0.0,0.0,0.0,0.0
17408.066934,0.14071428571428568,-0.42472066551916576,-0.09779802690918737,0.02110239470353729,[-1.],0.05,-0.11,-1.09,-1,"4.337,0.048,-0.04,1126.,0.390,0.340,0.134,0.995,16",1109.0,1074.0,1154.0,1169.0,0.0,0.0,0.0,0.0
17440.410379,0.14071428571428568,-0.42472066551916576,-0.09779802690918737,0.02110239470353729,[-1.],0.09,-0.07,-1.04,-1,"4.262,0.048,-0.04,1126.,0.390,0.340,0.134,0.995,16",1113.0,1071.0,1149.0,1169.0,0.0,0.0,0.0,0.0
17499.989101,0.1421428571428573,-0.42472066551916576,-0.09779802690918737,0.02110239470353729,[-1.],-0.0,0.11,-1.01,-1,"4.262,0.048,-0.04,1127.,0.390,0.340,0.134,0.995,16",1114.0,1077.0,1152.0,1159.0,0.0,0.0,0.0,0.0
17532.831397,0.1421428571428573,-0.42472066551916576,-0.09779802690918737,0.02110239470353729,[-1.],0.1,-0.1,-1.14,-1,"4.262,0.048,-0.04,1127.,0.39,0.340,0.134,0.995,16",1118.0,1062.0,1147.0,1175.0,0.0,0.0,0.0,0.0
17567.665453,0.14142857142857135,-0.42472066551916576,-0.09779802690918737,0.02110239470353729,[-1.],-0.04,0.09,-0.91,-1,"4.337,0.048,-0.04,1127.,0.390,0.34,0.134,0.995,16",1102.0,1089.0,1161.0,1149.0,0.0,0.0,0.0,0.0
17609.640638,0.14071428571428568,-0.42472066551916576,-0.09779802690918737,0.02110239470353729,[-1.],0.13,0.09,-1.03,-1,"4.337,0.047,-0.04,1126.,0.390,0.340,0.134,0.995,16",1133.0,1058.0,1138.0,1177.0,0.0,0.0,0.0,0.0
17692.240156,0.14142857142857135,-0.42472066551916576,-0.09779802690918737,0.02110239470353729,[-1.],0.14,0.05,-1.01,-1,"4.337,0.048,-0.04,1127.,0.390,0.340,0.134,0.995,16",1132.0,1058.0,1137.0,1179.0,0.0,0.0,0.0,0.0
17749.889916,0.14,-0.42472066551916576,-0.09779802690918737,0.02110239470353729,[-1.],0.17,-0.1,-1.12,-1,"4.262,0.047,-0.04,1126.,0.390,0.340,0.134,0.995,16",1115.0,1068.0,1154.0,1169.0,0.0,0.0,0.0,0.0
17804.495971,0.13857142857142865,-0.4042128263970031,-0.0980087610182323,0.020097796098591143,[-1.],0.03,-0.11,-1.09,-1,"4.337,0.047,-0.04,1124.,0.390,0.340,0.134,0.995,16",1110.0,1073.0,1151.0,1167.0,0.0,0.0,0.0,0.0
17885.65086,0.13928571428571432,-0.4042128263970031,-0.0980087610182323,0.020097796098591143,[-1.],0.01,0.06,-0.95,-1,"4.337,0.048,-0.04,1125.,0.39,0.340,0.134,0.995,16",1128.0,1070.0,1137.0,1171.0,0.0,0.0,0.0,0.0
17944.719767,0.13857142857142865,-0.4042128263970031,-0.0980087610182323,0.020097796098591143,[-1.],0.02,-0.02,-0.99,-1,"4.337,0.048,-0.04,1124.,0.39,0.340,0.134,0.995,16",1098.0,1089.0,1165.0,1150.0,0.0,0.0,0.0,0.0
18006.573101,0.1378571428571427,-0.4042128263970031,-0.0980087610182323,0.020097796098591143,[-1.],0.02,0.08,-0.96,-1,"4.337,0.048,-0.04,1124.,0.39,0.34,0.134,0.995,16",1121.0,1069.0,1140.0,1163.0,0.0,0.0,0.0,0.0
18068.22486,0.1378571428571427,-0.4042128263970031,-0.0980087610182323,0.020097796098591143,[-1.],-0.05,0.08,-0.94,-1,"4.188,0.048,-0.04,1124.,0.390,0.340,0.134,0.995,16",1100.0,1091.0,1161.0,1147.0,0.0,0.0,0.0,0.0
18101.852564,0.1378571428571427,-0.4042128263970031,-0.0980087610182323,0.020097796098591143,[-1.],-0.01,0.09,-0.94,-1,"4.188,0.048,-0.04,1124.,0.39,0.340,0.134,0.995,16",1118.0,1072.0,1143.0,1161.0,0.0,0.0,0.0,0.0
18131.752452,0.1378571428571427,-0.4042128263970031,-0.0980087610182323,0.020097796098591143,[-1.],-0.04,0.04,-1.01,-1,"4.113,0.048,-0.04,1124.,0.390,0.340,0.134,0.995,16",1133.0,1061.0,1125.0,1174.0,0.0,0.0,0.0,0.0
18157.860823,0.1378571428571427,-0.4042128263970031,-0.0980087610182323,0.020097796098591143,[-1.],0.11,0.05,-1.02,-1,"4.113,0.048,-0.04,1124.,0.39,0.340,0.134,0.995,16",1125.0,1062.0,1137.0,1170.0,0.0,0.0,0.0,0.0
18235.592304,0.1378571428571427,-0.4042128263970031,-0.0980087610182323,0.020097796098591143,[-1.],0.04,-0.16,-1.07,-1,"4.038,0.047,-0.04,1124.,0.390,0.340,0.135,0.995,16",1104.0,1077.0,1154.0,1159.0,0.0,0.0,0.0,0.0
18326.155193,0.13714285714285704,-0.4042128263970031,-0.0980087610182323,0.020097796098591143,[-1.],-0.1,0.04,-0.92,-1,"3.963,0.047,-0.04,1123.,0.390,0.340,0.134,0.995,16",1105.0,1086.0,1153.0,1150.0,0.0,0.0,0.0,0.0
18449.396286,0.13714285714285704,-0.4042128263970031,-0.0980087610182323,0.020097796098591143,[-1.],0.17,0.0,-1.04,-1,"3.664,0.047,-0.04,1123.,0.390,0.340,0.134,0.995,16",1121.0,1061.0,1140.0,1171.0,0.0,0.0,0.0,0.0
18574.8701,0.18285714285714297,-0.4042128263970031,-0.0980087610182323,0.020097796098591143,[-1.],-0.02,0.01,-1.01,-1,"4.412,0.047,-0.04,1164.,0.390,0.34,0.134,0.995,16",1107.0,1077.0,1154.0,1156.0,0.0,0.0,0.0,0.0
18637.639082,0.19214285714285703,-0.383747367324352,-0.09820880115318475,0.019093156920427814,[-1.],-0.03,-0.03,-1.0,-1,"3.963,0.048,-0.04,1172.,0.39,0.34,0.134,0.995,16",1108.0,1077.0,1149.0,1156.0,0.0,0.0,0.0,0.0
18693.049397,0.19285714285714298,-0.383747367324352,-0.09820880115318475,0.019093156920427814,[-1.],0.14,-0.12,-1.1,-1,"3.664,0.048,-0.04,1173.,0.39,0.340,0.134,0.995,16",1111.0,1063.0,1150.0,1165.0,0.0,0.0,0.0,0.0
18778.498804,0.19285714285714298,-0.383747367324352,-0.09820880115318475,0.019093156920427814,[-1.],0.01,0.09,-1.0,-1,"3.888,0.048,-0.04,1173.,0.390,0.340,0.134,0.995,16",1137.0,1129.0,1204.0,1184.0,0.0,0.0,0.0,0.0
18883.404156,0.19214285714285703,-0.383747367324352,-0.09820880115318475,0.019093156920427814,[-1.],0.03,-0.09,-0.94,-1,"3.814,0.048,-0.04,1172.,0.39,0.340,0.134,0.995,16",1156.0,1126.0,1201.0,1203.0,0.0,0.0,0.0,0.0
18927.003896,0.19142857142857136,-0.383747367324352,-0.09820880115318475,0.019093156920427814,[-1.],0.38,0.05,-0.95,-1,"3.739,0.048,-0.04,1172.,0.39,0.340,0.134,0.995,16",1168.0,1102.0,1198.0,1222.0,0.0,0.0,0.0,0.0
18961.552804,0.19071428571428567,-0.383747367324352,-0.09820880115318475,0.019093156920427814,[-1.],0.19,0.04,-0.9,-1,"3.739,0.047,-0.04,1171.,0.39,0.340,0.134,0.995,16",1150.0,1124.0,1205.0,1211.0,0.0,0.0,0.0,0.0
19010.955045,0.19071428571428567,-0.383747367324352,-0.09820880115318475,0.019093156920427814,[-1.],0.16,-0.12,-0.98,-1,"3.514,0.047,-0.04,1171.,0.390,0.340,0.134,0.995,16",1160.0,1120.0,1192.0,1214.0,0.0,0.0,0.0,0.0
19041.639637,0.19071428571428567,-0.383747367324352,-0.09820880115318475,0.019093156920427814,[-1.],-0.15,0.12,-1.02,-1,"3.514,0.047,-0.04,1171.,0.390,0.340,0.134,0.995,16",1165.0,1117.0,1198.0,1207.0,0.0,0.0,0.0,0.0
19089.997785,0.19,-0.383747367324352,-0.09820880115318475,0.019093156920427814,[-1.],0.18,-0.07,-1.0,-1,"3.141,0.047,-0.04,1171.,0.390,0.340,0.134,0.995,16",1162.0,1117.0,1191.0,1212.0,0.0,0.0,0.0,0.0
19209.718581,0.22,-0.383747367324352,-0.09820880115318475,0.019093156920427814,[-1.],-0.02,0.13,-0.95,-1,"4.113,0.047,-0.04,1198.,0.39,0.340,0.134,0.995,16",1180.0,1105.0,1178.0,1220.0,0.0,0.0,0.0,0.0
19409.153804,0.22,-0.383747367324352,-0.09820880115318475,0.019093156920427814,[-1.],0.02,-0.14,-0.93,-1,"3.888,0.048,-0.04,1198.,0.39,0.340,0.134,0.995,16",1159.0,1126.0,1190.0,1207.0,0.0,0.0,0.0,0.0
19473.863489,0.25142857142857133,-0.383747367324352,-0.09820880115318475,0.019093156920427814,[-1.],0.24,-0.11,-1.06,-1,"3.664,0.048,-0.04,1226.,0.390,0.340,0.134,0.995,16",1156.0,1122.0,1196.0,1207.0,0.0,0.0,0.0,0.0
19526.8151,0.25071428571428567,-0.36332192369985244,-0.0983982117308082,0.018088479194672446,[-1.],0.22,-0.01,-1.12,-1,"3.440,0.047,-0.04,1225.,0.39,0.340,0.134,0.995,16",1193.0,1142.0,1216.0,1239.0,0.0,0.0,0.0,0.0
19557.560878,0.25071428571428567,-0.36332192369985244,-0.0983982117308082,0.018088479194672446,[-1.],-0.14,-0.06,-0.92,-1,"3.440,0.047,-0.04,1225.,0.39,0.340,0.134,0.995,16",1184.0,1155.0,1227.0,1224.0,0.0,0.0,0.0,0.0
19626.139507,0.2521428571428573,-0.36332192369985244,-0.0983982117308082,0.018088479194672446,[-1.],0.08,0.17,-1.02,-1,"3.290,0.048,-0.04,1226.,0.39,0.340,0.134,0.995,16",1227.0,1168.0,1244.0,1262.0,0.0,0.0,0.0,0.0
19715.380007,0.2757142857142857,-0.36332192369985244,-0.0983982117308082,0.018088479194672446,[-1.],-0.19,-0.25,-1.07,-1,"3.365,0.048,-0.04,1248.,0.39,0.340,0.134,0.995,16",1213.0,1175.0,1247.0,1263.0,0.0,0.0,0.0,0.0
19750.306026,0.2757142857142857,-0.36332192369985244,-0.0983982117308082,0.018088479194672446,[-1.],0.06,-0.01,-1.1,-1,"3.141,0.047,-0.04,1248.,0.390,0.340,0.134,0.995,16",1200.0,1188.0,1262.0,1248.0,0.0,0.0,0.0,0.0
19806.47397,0.275,-0.36332192369985244,-0.0983982117308082,0.018088479194672446,[-1.],-0.01,-0.0,-0.99,-1,"3.066,0.047,-0.04,1247.,0.39,0.340,0.134,0.995,16",1243.0,1157.0,1221.0,1281.0,0.0,0.0,0.0,0.0
19852.772711,0.2757142857142857,-0.36332192369985244,-0.0983982117308082,0.018088479194672446,[-1.],-0.08,-0.14,-1.07,-1,"2.841,0.047,-0.04,1248.,0.390,0.340,0.134,0.995,16",1247.0,1192.0,1257.0,1294.0,0.0,0.0,0.0,0.0
19882.186896,0.2742857142857143,-0.36332192369985244,-0.0983982117308082,0.018088479194672446,[-1.],-0.04,0.1,-1.01,-1,"2.692,0.047,-0.04,1246.,0.39,0.340,0.135,0.995,16",1241.0,1202.0,1266.0,1282.0,0.0,0.0,0.0,0.0
19924.902544,0.27357142857142863,-0.36332192369985244,-0.0983982117308082,0.018088479194672446,[-1.],-0.14,0.1,-0.88,-1,"1.944,0.048,-0.04,1246.,0.39,0.340,0.134,0.995,16",1253.0,1193.0,1255.0,1284.0,0.0,0.0,0.0,0.0
20049.552081,0.305,-0.36332192369985244,-0.0983982117308082,0.018088479194672446,[-1.],0.03,-0.2,-1.12,-1,"1.645,0.047,-0.04,1274.,0.390,0.340,0.134,0.995,16",1239.0,1197.0,1269.0,1286.0,0.0,0.0,0.0,0.0
20085.947525,0.305,-0.36332192369985244,-0.0983982117308082,0.018088479194672446,[-1.],-0.13,-0.05,-0.94,-1,"1.645,0.047,-0.04,1274.,0.39,0.340,0.134,0.995,16",1247.0,1189.0,1257.0,1289.0,0.0,0.0,0.0,0.0
20114.174451,0.30571428571428566,-0.36332192369985244,-0.0983982117308082,0.018088479194672446,[-1.],0.22,-0.03,-1.09,-1,"1.645,0.047,-0.04,1275.,0.39,0.340,0.134,0.995,16",1227.0,1190.0,1284.0,1281.0,0.0,0.0,0.0,0.0
20139.620785,0.30571428571428566,-0.36332192369985244,-0.0983982117308082,0.018088479194672446,[-1.],0.18,0.03,-1.05,-1,"1.645,0.047,-0.04,1275.,0.39,0.340,0.134,0.995,16",1258.0,1221.0,1310.0,1304.0,0.0,0.0,0.0,0.0
20179.344007,0.3042857142857143,-0.36332192369985244,-0.0983982117308082,0.018088479194672446,[-1.],-0.06,-0.19,-1.09,-1,"1.346,0.048,-0.04,1273.,0.390,0.340,0.134,0.995,16",1249.0,1242.0,1311.0,1293.0,0.0,0.0,0.0,0.0
20215.859062,0.3042857142857143,-0.36332192369985244,-0.0983982117308082,0.018088479194672446,[-1.],-0.02,0.07,-0.87,-1,"1.346,0.048,-0.04,1273.,0.390,0.340,0.134,0.995,16",1277.0,1224.0,1283.0,1313.0,0.0,0.0,0.0,0.0
20319.944414,0.33285714285714274,-0.3429341708791022,-0.09857705326139832,0.01708376494741691,[-1.],0.06,-0.09,-1.06,-1,"1.869,0.048,-0.04,1299.,0.389,0.340,0.134,0.995,16",1250.0,1234.0,1313.0,1300.0,0.0,0.0,0.0,0.0
20387.773062,0.33285714285714274,-0.3429341708791022,-0.09857705326139832,0.01708376494741691,[-1.],-0.14,0.02,-1.04,-1,"1.869,0.048,-0.04,1299.,0.39,0.340,0.134,0.995,16",1279.0,1219.0,1282.0,1310.0,0.0,0.0,0.0,0.0
20467.699192,0.33285714285714274,-0.3429341708791022,-0.09857705326139832,0.01708376494741691,[-1.],-0.04,-0.04,-1.15,-1,"1.869,0.048,-0.04,1299.,0.39,0.340,0.134,0.995,16",1276.0,1213.0,1284.0,1317.0,0.0,0.0,0.0,0.0
20557.516988,0.33142857142857135,-0.3429341708791022,-0.09857705326139832,0.01708376494741691,[-1.],0.1,0.05,-0.99,-1,"1.869,0.048,-0.04,1298.,0.390,0.340,0.134,0.995,16",1272.0,1259.0,1339.0,1324.0,0.0,0.0,0.0,0.0
20622.856099,0.33142857142857135,-0.3429341708791022,-0.09857705326139832,0.01708376494741691,[-1.],-0.05,-0.22,-0.98,-1,"1.645,0.047,-0.04,1298.,0.39,0.340,0.134,0.995,16",1279.0,1264.0,1333.0,1319.0,0.0,0.0,0.0,0.0
20826.269043,0.3307142857142857,-0.3429341708791022,-0.09857705326139832,0.01708376494741691,[-1.],0.08,-0.02,-1.13,-1,"1.346,0.047,-0.04,1297.,0.390,0.340,0.134,0.995,16",1255.0,1267.0,1360.0,1313.0,0.0,0.0,0.0,0.0
20985.606877,0.3307142857142857,-0.3429341708791022,-0.09857705326139832,0.01708376494741691,[-1.],-0.18,-0.17,-0.95,-1,"3.141,0.048,-0.04,1297.,0.39,0.340,0.134,0.995,16",1264.0,1269.0,1343.0,1313.0,0.0,0.0,0.0,0.0
21045.944877,0.33,-0.3429341708791022,-0.09857705326139832,0.01708376494741691,[-1.],-0.08,0.01,-1.04,-1,"2.542,0.047,-0.04,1297.,0.39,0.340,0.134,0.995,16",1305.0,1236.0,1311.0,1338.0,0.0,0.0,0.0,0.0
21116.522117,0.387142857142857,-0.3225818214753698,-0.09874538245122544,0.016079016205195303,[-1.],0.08,-0.06,-1.08,-1,"2.916,0.048,-0.04,1348.,0.390,0.340,0.134,0.995,16",1254.0,1264.0,1353.0,1315.0,0.0,0.0,0.0,0.0
21186.162025,0.38642857142857134,-0.3225818214753698,-0.09874538245122544,0.016079016205195303,[-1.],0.04,0.14,-0.95,-1,"2.617,0.047,-0.04,1347.,0.390,0.340,0.134,0.995,16",1302.0,1234.0,1305.0,1345.0,0.0,0.0,0.0,0.0
21274.203247,0.387142857142857,-0.3225818214753698,-0.09874538245122544,0.016079016205195303,[-1.],0.24,0.03,-0.99,-1,"2.692,0.047,-0.04,1348.,0.390,0.34,0.134,0.995,16",1269.0,1256.0,1343.0,1319.0,0.0,0.0,0.0,0.0
21337.231469,0.387142857142857,-0.3225818214753698,-0.09874538245122544,0.016079016205195303,[-1.],-0.04,-0.04,-1.15,-1,"2.617,0.048,-0.04,1348.,0.39,0.34,0.134,0.995,16",1339.0,1307.0,1366.0,1378.0,0.0,0.0,0.0,0.0
21435.665747,0.4192857142857143,-0.3221483413624271,-0.07898660499604704,0.012840385757865377,[-1.],0.09,0.09,-1.02,-1,"2.767,0.047,-0.04,1377.,0.390,0.340,0.135,0.995,16",1366.0,1292.0,1350.0,1378.0,0.0,0.0,0.0,0.0
21594.818339,0.415,-0.32181219871988637,-0.05923429533064839,0.009617014666266953,[-1.],0.11,0.1,-1.0,-1,"2.393,0.048,-0.04,1373.,0.39,0.340,0.134,0.995,16",1366.0,1314.0,1346.0,1365.0,0.0,0.0,0.0,0.0
21720.725561,0.4142857142857143,-0.32157263498196265,-0.039486835912389884,0.00640503651005093,[-1.],-0.03,0.12,-1.01,-1,"2.467,0.048,-0.04,1372.,0.390,0.340,0.134,0.995,16",1338.0,1339.0,1365.0,1348.0,0.0,0.0,0.0,0.0
21789.389024,0.4128571428571427,-0.3214291113879577,-0.01974260969962338,0.003200629198869892,[-1.],-0.05,0.11,-1.25,-1,"1.645,0.047,-0.04,1371.,0.39,0.340,0.134,0.995,16",1383.0,1367.0,1366.0,1390.0,0.0,0.0,0.0,0.0
21828.323247,0.4121428571428573,-0.321365926503994,-0.003200005461358346,-0.019742710795696818,[-1.],-0.01,0.14,-0.95,-1,"1.570,0.047,-0.04,1370.,0.390,0.340,0.134,0.995,16",1400.0,1346.0,1343.0,1401.0,0.0,0.0,0.0,0.0
21880.983284,0.4121428571428573,-0.34165933825820904,0.0,-0.0,[-1.],0.08,0.16,-0.98,-1,"1.570,0.047,-0.04,1370.,0.39,0.340,0.134,0.995,16",1423.0,1321.0,1332.0,1410.0,0.0,0.0,0.0,0.0
21925.63495,0.4121428571428573,-0.34165933825820904,0.0,-0.0,[-1.],0.23,-0.02,-1.16,-1,"1.794,0.032,-0.04,1370.,0.39,0.340,0.134,0.995,16",1415.0,1310.0,1335.0,1421.0,0.0,0.0,0.0,0.0
21946.049228,0.4121428571428573,-0.34165933825820904,0.0,0.0,[-1.],0.04,0.38,-0.95,-1,"2.243,0.023,-0.04,1370.,0.390,0.340,0.134,0.995,16",1372.0,1358.0,1387.0,1361.0,0.0,0.0,0.0,0.0
21972.215672,0.4121428571428573,-0.34164308375369695,0.0034000065507009403,0.019709256363220448,[-1.],0.07,0.29,-1.09,-1,"2.841,0.0,-0.04,1370.,0.39,0.340,0.134,0.995,16",1368.0,1349.0,1377.0,1384.0,0.0,0.0,0.0,0.0
22000.500061,0.4121428571428573,-0.34165933825820904,0.0,0.0,[-1.],0.09,0.09,-0.89,-1,"3.215,-0.03,-0.03,1370.,0.390,0.340,0.134,0.995,16",1392.0,1333.0,1369.0,1384.0,0.0,0.0,0.0,0.0
22029.51982,0.4121428571428573,-0.34165933825820904,0.0,0.0,[-1.],0.01,-0.15,-0.92,-1,"3.215,-0.03,-0.02,1370.,0.390,0.340,0.134,0.995,16",1393.0,1327.0,1369.0,1389.0,0.0,0.0,0.0,0.0
22103.518746,0.4121428571428573,-0.34171010390355566,-0.019709142428636417,0.003400667026920888,[-1.],-0.14,0.02,-1.02,-1,"3.215,-0.03,-0.01,1370.,0.39,0.340,0.134,0.995,16",1371.0,1356.0,1389.0,1362.0,0.0,0.0,0.0,0.0
22149.692894,0.41142857142857137,-0.3418823084455128,-0.01630757438863828,0.023111981966132074,[-1.],0.06,0.38,-0.96,-1,"3.215,-0.04,-0.02,1370.,0.390,0.340,0.134,0.995,16",1374.0,1368.0,1369.0,1367.0,0.0,0.0,0.0,0.0
22182.04045,0.4121428571428573,-0.34171010390355566,-0.019709142428636417,0.003400667026920888,[-1.],0.06,0.22,-1.0,-1,"3.290,-0.04,-0.03,1370.,0.39,0.340,0.134,0.995,16",1383.0,1345.0,1351.0,1399.0,0.0,0.0,0.0,0.0
22207.725283,0.4121428571428573,-0.34186251421934954,-0.039419851943809814,0.006805339295788541,[-1.],-0.17,0.17,-1.1,-1,"3.365,-0.04,-0.04,1370.,0.39,0.340,0.134,0.995,16",1330.0,1383.0,1395.0,1370.0,0.0,0.0,0.0,0.0
22285.045543,0.4121428571428573,-0.34186251421934954,-0.039419851943809814,0.006805339295788541,[-1.],-0.1,0.17,-1.11,-1,"3.664,-0.04,-0.04,1370.,0.39,0.340,0.134,0.995,16",1360.0,1359.0,1370.0,1389.0,0.0,0.0,0.0,0.0
22313.006543,0.4121428571428573,-0.34146904418166096,-0.04282069837046687,-0.0129160051846039,[-1.],0.03,-0.09,-0.93,-1,"3.664,-0.04,-0.04,1370.,0.39,0.340,0.134,0.995,16",1380.0,1334.0,1359.0,1405.0,0.0,0.0,0.0,0.0
22359.272376,0.4121428571428573,-0.34211690998578514,-0.05913369560699988,0.010218037476801722,[-1.],-0.09,-0.1,-1.02,-1,"3.664,-0.07,-0.02,1370.,0.390,0.340,0.134,0.995,16",1381.0,1321.0,1369.0,1407.0,0.0,0.0,0.0,0.0
22442.452524,0.4121428571428573,-0.34211690998578514,-0.05913369560699988,0.010218037476801722,[-1.],0.09,0.12,-1.03,-1,"3.739,-0.08,-0.01,1370.,0.390,0.340,0.134,0.995,16",1378.0,1324.0,1378.0,1397.0,0.0,0.0,0.0,0.0
22495.745265,0.4121428571428573,-0.3424738613129732,-0.07885224041880545,0.013642813219032697,[-1.],0.14,0.27,-0.88,-1,"3.739,-0.07,-0.01,1370.,0.39,0.340,0.134,0.995,16",1386.0,1335.0,1383.0,1374.0,0.0,0.0,0.0,0.0
22546.727394,0.4121428571428573,-0.3432132425767986,-0.07543802162474433,0.033392782874628366,[-1.],0.22,-0.01,-0.93,-1,"3.814,-0.07,-0.02,1370.,0.39,0.340,0.134,0.995,16",1415.0,1307.0,1338.0,1418.0,0.0,0.0,0.0,0.0
22700.15995,0.4121428571428573,-0.3424738613129732,-0.07885224041880545,0.013642813219032697,[-1.],-0.24,0.0,-1.04,-1,"4.038,-0.14,0.011,1370.,0.390,0.340,0.134,0.995,16",1381.0,1351.0,1369.0,1376.0,0.0,0.0,0.0,0.0
22799.579227,0.4121428571428573,-0.34266673212239174,-0.055725028584993064,0.02994969020886165,[-1.],-0.11,0.12,-0.99,-1,"3.290,-0.15,0.016,1370.,0.390,0.340,0.134,0.995,16",1405.0,1314.0,1347.0,1413.0,0.0,0.0,0.0,0.0
22865.981061,0.4121428571428573,-0.3432132425767986,-0.07543802162474433,0.033392782874628366,[-1.],-0.21,0.1,-1.07,-1,"3.215,-0.15,0.012,1370.,0.39,0.340,0.134,0.995,16",1373.0,1330.0,1384.0,1391.0,0.0,0.0,0.0,0.0
22922.537968,0.4121428571428573,-0.34386388105548477,-0.09515593323195803,0.03685752637991092,[-1.],0.28,0.03,-0.95,-1,"2.841,-0.15,0.011,1370.,0.39,0.340,0.134,0.995,16",1412.0,1309.0,1330.0,1427.0,0.0,0.0,0.0,0.0
22979.484561,0.4121428571428573,-0.34386388105548477,-0.09515593323195803,0.03685752637991092,[-1.],-0.08,-0.2,-1.09,-1,"1.570,-0.16,0.013,1370.,0.39,0.34,0.134,0.995,16",1411.0,1318.0,1338.0,1412.0,0.0,0.0,0.0,0.0
23059.807931,0.4121428571428573,-0.36503103125797315,-0.1144638777061584,0.04151922670283208,[-1.],-0.02,0.08,-0.93,-1,"0.448,-0.14,-0.00,1370.,0.39,0.340,0.134,0.995,16",1375.0,1336.0,1381.0,1387.0,0.0,0.0,0.0,0.0
23102.875616,0.4121428571428573,-0.3467622095562838,-0.1311609145343524,0.06369988525804383,[-1.],-0.3,-0.2,-1.05,-1,"-0.14,-0.12,-0.01,1370.,0.39,0.340,0.134,0.995,16",1403.0,1304.0,1356.0,1415.0,0.0,0.0,0.0,0.0
23161.893079,0.4121428571428573,-0.36840499318204256,-0.1501967291376014,0.06883689089209831,[-1.],-0.23,0.01,-0.98,-1,"-1.27,-0.08,-0.02,1370.,0.39,0.340,0.134,0.995,16",1382.0,1327.0,1378.0,1390.0,0.0,0.0,0.0,0.0
23230.893468,0.4121428571428573,-0.36840499318204256,-0.1501967291376014,0.06883689089209831,[-1.],-0.09,-0.29,-1.01,-1,"-2.01,-0.04,-0.03,1370.,0.39,0.340,0.134,0.995,16",1415.0,1292.0,1362.0,1409.0,0.0,0.0,0.0,0.0
23285.010079,0.4121428571428573,-0.36840499318204256,-0.1501967291376014,0.06883689089209831,[-1.],-0.15,0.02,-0.99,-1,"-2.31,0.005,-0.05,1370.,0.39,0.340,0.134,0.995,16",1350.0,1347.0,1411.0,1370.0,0.0,0.0,0.0,0.0
23325.929116,0.4121428571428573,-0.3669465080718105,-0.15386350781392322,0.0490054557993125,[-1.],0.13,0.1,-0.93,-1,"-2.39,0.020,-0.05,1370.,0.39,0.340,0.134,0.995,16",1367.0,1323.0,1398.0,1390.0,0.0,0.0,0.0,0.0
23344.968727,0.41142857142857137,-0.3864169777479712,-0.13369070642900915,0.046617401147649985,[-1.],-0.21,-0.13,-1.04,-1,"-2.61,0.023,-0.05,1370.,0.390,0.340,0.134,0.995,16",1385.0,1322.0,1358.0,1412.0,0.0,0.0,0.0,0.0
23387.238134,0.41142857142857137,-0.38512598714520774,-0.13753313518296673,0.02685680092339728,[-1.],0.13,0.05,-0.98,-1,"-2.69,0.028,-0.05,1370.,0.39,0.340,0.134,0.995,16",1378.0,1309.0,1382.0,1409.0,0.0,0.0,0.0,0.0
23458.89069,0.46857142857142864,-0.38437770838702207,-0.11786659886056006,0.022961314436198123,[-1.],-0.07,-0.14,-1.11,-1,"-0.44,0.046,-0.05,1421.,0.39,0.340,0.134,0.995,16",1384.0,1314.0,1362.0,1417.0,0.0,0.0,0.0,0.0
23482.362634,0.4671428571428573,-0.38437770838702207,-0.11786659886056006,0.022961314436198123,[-1.],-0.13,-0.17,-1.03,-1,"-0.82,0.046,-0.05,1420.,0.390,0.340,0.134,0.995,16",1396.0,1315.0,1353.0,1414.0,0.0,0.0,0.0,0.0
23509.761338,0.46857142857142864,-0.3824710256486532,-0.08236653588577725,-0.00443340337260498,[-1.],-0.08,-0.1,-0.99,-1,"-0.59,0.045,-0.03,1421.,0.39,0.34,0.134,0.995,16",1386.0,1348.0,1365.0,1380.0,0.0,0.0,0.0,0.0
23532.872246,0.46857142857142864,-0.3822594265359893,-0.06271758935188254,-0.008241790960750645,[-1.],0.07,0.03,-0.96,-1,"-0.29,0.045,0.038,1421.,0.390,0.340,0.134,0.995,16",1461.0,1376.0,1388.0,1457.0,0.0,0.0,0.0,0.0
23552.45482,0.46857142857142864,-0.40268138356007194,-0.06279839478258742,-0.007600764524668041,[-1.],0.07,0.27,-1.1,-1,"-0.07,0.048,0.085,1421.,0.390,0.340,0.134,0.995,16",1450.0,1397.0,1389.0,1443.0,0.0,0.0,0.0,0.0
